stid,name,state,country,county,cwa,nwszone,timezone,elevation_ft,lat,lon,mnet_id,air_temp_min_f,valid_time,period_start_local,period_end_local,period_start_utc,period_end_utc,count
UP875,LAWTEL,LA,US,,,,America/Chicago,68.0,30.51779,-92.20221,64,-50.0,2026-04-24T01:17:00-0500,2026-04-24T00:00:00-05:00,2026-04-25T00:00:00-05:00,2026-04-24T05:00:00+00:00,2026-04-25T05:00:00+00:00,12
UP880,POWELL,LA,US,,,,America/Chicago,59.0,30.50125,-92.39713,64,-39.0,2026-04-24T00:04:00-0500,2026-04-24T00:00:00-05:00,2026-04-25T00:00:00-05:00,2026-04-24T05:00:00+00:00,2026-04-25T05:00:00+00:00,14
UP172,KROTZS,LA,US,,,,America/Chicago,49.0,30.54060,-91.74199,64,19.0,2026-04-24T02:58:00-0500,2026-04-24T00:00:00-05:00,2026-04-25T00:00:00-05:00,2026-04-24T05:00:00+00:00,2026-04-25T05:00:00+00:00,11
KGZH,"Evergreen, Middleton Field",AL,US,,,,America/Chicago,256.0,31.41889,-87.04806,1,51.8,2026-04-24T04:55:00-0500,2026-04-24T00:00:00-05:00,2026-04-25T00:00:00-05:00,2026-04-24T05:00:00+00:00,2026-04-25T05:00:00+00:00,75
USA20,Castleberry,AL,US,,,,America/Chicago,250.0,31.29580,-87.03130,3011,52.6,2026-04-24T05:45:00-0500,2026-04-24T00:00:00-05:00,2026-04-25T00:00:00-05:00,2026-04-24T05:00:00+00:00,2026-04-25T05:00:00+00:00,346
AU216,W5XN Carriere,MS,US,,,,America/Chicago,116.5,30.63867,-89.70283,65,54.0,2026-04-24T05:14:00-0500,2026-04-24T00:00:00-05:00,2026-04-25T00:00:00-05:00,2026-04-24T05:00:00+00:00,2026-04-25T05:00:00+00:00,69
AV775,KJ4EWA Milton,FL,US,,,,America/Chicago,89.0,30.65283,-87.11950,65,54.0,2026-04-24T04:58:00-0500,2026-04-24T00:00:00-05:00,2026-04-25T00:00:00-05:00,2026-04-24T05:00:00+00:00,2026-04-25T05:00:00+00:00,69
F4737,FW4737 Nokomis,AL,US,,,,America/Chicago,240.03,31.02712,-87.59266,65,54.0,2026-04-24T05:25:00-0500,2026-04-24T00:00:00-05:00,2026-04-25T00:00:00-05:00,2026-04-24T05:00:00+00:00,2026-04-25T05:00:00+00:00,67
MVSA1,Mt. Vernon,AL,US,,,,America/Chicago,53.0,31.09050,-87.99870,3011,54.7,2026-04-24T05:42:00-0500,2026-04-24T00:00:00-05:00,2026-04-25T00:00:00-05:00,2026-04-24T05:00:00+00:00,2026-04-25T05:00:00+00:00,345
E0390,EW0390 Calvert,AL,US,,,,America/Chicago,52.4,31.14667,-87.99883,65,55.0,2026-04-24T05:17:00-0500,2026-04-24T00:00:00-05:00,2026-04-25T00:00:00-05:00,2026-04-24T05:00:00+00:00,2026-04-25T05:00:00+00:00,58
G3222,GW3222 Waynesboro,MS,US,,,,America/Chicago,167.0,31.67737,-88.67066,65,55.0,2026-04-24T03:45:00-0500,2026-04-24T00:00:00-05:00,2026-04-25T00:00:00-05:00,2026-04-24T05:00:00+00:00,2026-04-25T05:00:00+00:00,24
G5434,GW5434 EASTABUCHIE,MS,US,,,,America/Chicago,190.0,31.45250,-89.28433,65,55.0,2026-04-24T03:15:00-0500,2026-04-24T00:00:00-05:00,2026-04-25T00:00:00-05:00,2026-04-24T05:00:00+00:00,2026-04-25T05:00:00+00:00,24
BRXA1,USCRN SITE NEAR BREWTON 3NNE,AL,US,,,,America/Chicago,187.0,31.14500,-87.05167,123,55.1,2026-04-24T04:45:00-0500,2026-04-24T00:00:00-05:00,2026-04-25T00:00:00-05:00,2026-04-24T05:00:00+00:00,2026-04-25T05:00:00+00:00,61
MSS28,Beaumont,MS,US,,,,America/Chicago,171.0,31.23583,-88.92188,236,55.9,2026-04-24T04:00:00-0500,2026-04-24T00:00:00-05:00,2026-04-25T00:00:00-05:00,2026-04-24T05:00:00+00:00,2026-04-25T05:00:00+00:00,23
AW025,KF5WKW CANTONMENT,FL,US,,,,America/Chicago,65.0,30.54533,-87.33683,65,56.0,2026-04-24T05:05:00-0500,2026-04-24T00:00:00-05:00,2026-04-25T00:00:00-05:00,2026-04-24T05:00:00+00:00,2026-04-25T05:00:00+00:00,35
F7679,FW7679 Slidell,LA,US,,,,America/Chicago,14.76,30.22717,-89.80317,65,56.0,2026-04-24T02:20:00-0500,2026-04-24T00:00:00-05:00,2026-04-25T00:00:00-05:00,2026-04-24T05:00:00+00:00,2026-04-25T05:00:00+00:00,68
G1824,KD1DRM POPLARVILLE,MS,US,,,,America/Chicago,264.01,30.85000,-89.52000,65,56.0,2026-04-24T03:00:00-0500,2026-04-24T00:00:00-05:00,2026-04-25T00:00:00-05:00,2026-04-24T05:00:00+00:00,2026-04-25T05:00:00+00:00,24
G1930,GW1930 CHATOM,AL,US,,,,America/Chicago,154.2,31.45100,-88.19617,65,56.0,2026-04-24T03:15:00-0500,2026-04-24T00:00:00-05:00,2026-04-25T00:00:00-05:00,2026-04-24T05:00:00+00:00,2026-04-25T05:00:00+00:00,24
G4772,GW4772 GATESWOOD,AL,US,,,,America/Chicago,177.16,30.70833,-87.54767,65,56.0,2026-04-24T05:30:00-0500,2026-04-24T00:00:00-05:00,2026-04-25T00:00:00-05:00,2026-04-24T05:00:00+00:00,2026-04-25T05:00:00+00:00,24
USA11,Loxley,AL,US,,,,America/Chicago,184.0,30.64030,-87.73150,3011,56.5,2026-04-24T05:09:00-0500,2026-04-24T00:00:00-05:00,2026-04-25T00:00:00-05:00,2026-04-24T05:00:00+00:00,2026-04-25T05:00:00+00:00,350
AR152,KC5LIO Fairhope,AL,US,,,,America/Chicago,91.53,30.51833,-87.81717,65,57.0,2026-04-24T05:17:00-0500,2026-04-24T00:00:00-05:00,2026-04-25T00:00:00-05:00,2026-04-24T05:00:00+00:00,2026-04-25T05:00:00+00:00,17
KNDZ,"Milton, Whiting Field South",FL,US,,,,America/Chicago,177.0,30.69722,-87.02,1,57.0,2026-04-24T03:56:00-0500,2026-04-24T00:00:00-05:00,2026-04-25T00:00:00-05:00,2026-04-24T05:00:00+00:00,2026-04-25T05:00:00+00:00,3
RHCM6,COVINGTON,MS,US,,,,America/Chicago,290.0,31.749720,-89.516390,2,57.0,2026-04-24T04:09:00-0500,2026-04-24T00:00:00-05:00,2026-04-25T00:00:00-05:00,2026-04-24T05:00:00+00:00,2026-04-25T05:00:00+00:00,6
JAYF1,Jay,FL,US,,,,America/Chicago,220.0,30.77516,-87.14015,60,57.2,2026-04-24T04:30:00-0500,2026-04-24T00:00:00-05:00,2026-04-25T00:00:00-05:00,2026-04-24T05:00:00+00:00,2026-04-25T05:00:00+00:00,23
KHBG,"Hattiesburg, Bobby L Chain Municipal Airport",MS,US,,,,America/Chicago,147.0,31.26945,-89.25613,1,57.2,2026-04-24T02:15:00-0500,2026-04-24T00:00:00-05:00,2026-04-25T00:00:00-05:00,2026-04-24T05:00:00+00:00,2026-04-25T05:00:00+00:00,78
KPIB,"Hattiesburg/Laurel, Hattiesburg-Laurel Regional Airport",MS,US,,,,America/Chicago,299.0,31.46667,-89.33333,1,57.2,2026-04-24T02:25:00-0500,2026-04-24T00:00:00-05:00,2026-04-25T00:00:00-05:00,2026-04-24T05:00:00+00:00,2026-04-25T05:00:00+00:00,76
1683W,FSWN Escambia Century Fire Station,FL,US,,,,America/Chicago,131.0,30.95580,-87.27981,249,57.6,2026-04-24T04:40:00-0500,2026-04-24T00:00:00-05:00,2026-04-25T00:00:00-05:00,2026-04-24T05:00:00+00:00,2026-04-25T05:00:00+00:00,34
KLUL,LAUREL/NOBLE FIELD,MS,US,,,,America/Chicago,240.0,31.67,-89.17,1,57.9,2026-04-24T04:15:00-0500,2026-04-24T00:00:00-05:00,2026-04-25T00:00:00-05:00,2026-04-24T05:00:00+00:00,2026-04-25T05:00:00+00:00,7
KNSE,Milton - Whiting Field Naval Air Station North,FL,US,,,,America/Chicago,184.0,30.72848,-87.02192,1,57.9,2026-04-24T02:56:00-0500,2026-04-24T00:00:00-05:00,2026-04-25T00:00:00-05:00,2026-04-24T05:00:00+00:00,2026-04-25T05:00:00+00:00,3
D2686,DW2686 Robertsdale,AL,US,,,,America/Chicago,84.61,30.5255,-87.7285,65,58.0,2026-04-24T04:15:00-0500,2026-04-24T00:00:00-05:00,2026-04-25T00:00:00-05:00,2026-04-24T05:00:00+00:00,2026-04-25T05:00:00+00:00,69
D4362,DW4362 Milton,FL,US,,,,America/Chicago,154.0,30.66826,-87.06036,65,58.0,2026-04-24T04:16:00-0500,2026-04-24T00:00:00-05:00,2026-04-25T00:00:00-05:00,2026-04-24T05:00:00+00:00,2026-04-25T05:00:00+00:00,20
E8557,EW8557 Walnut Hill,FL,US,,,,America/Chicago,254.0,30.87983,-87.50050,65,58.0,2026-04-24T05:15:00-0500,2026-04-24T00:00:00-05:00,2026-04-25T00:00:00-05:00,2026-04-24T05:00:00+00:00,2026-04-25T05:00:00+00:00,24
F6606,FW6606 Foley,AL,US,,,,America/Chicago,609.38,30.43121,-87.65821,65,58.0,2026-04-24T05:15:00-0500,2026-04-24T00:00:00-05:00,2026-04-25T00:00:00-05:00,2026-04-24T05:00:00+00:00,2026-04-25T05:00:00+00:00,24
FRGM6,RAGLAND HILLS,MS,US,,,,America/Chicago,285.0,31.2042,-89.178330,2,58.0,2026-04-24T02:00:00-0500,2026-04-24T00:00:00-05:00,2026-04-25T00:00:00-05:00,2026-04-24T05:00:00+00:00,2026-04-25T05:00:00+00:00,6
G1927,GW1927 SAND HILL,MS,US,,,,America/Chicago,341.21,31.34900,-88.76167,65,58.0,2026-04-24T04:31:00-0500,2026-04-24T00:00:00-05:00,2026-04-25T00:00:00-05:00,2026-04-24T05:00:00+00:00,2026-04-25T05:00:00+00:00,24
LAUM6,WAUSAU,MS,US,,,,America/Chicago,316.0,31.530350,-88.892370,2,58.0,2026-04-24T03:36:00-0500,2026-04-24T00:00:00-05:00,2026-04-25T00:00:00-05:00,2026-04-24T05:00:00+00:00,2026-04-25T05:00:00+00:00,6
LKKM6,GREENE,MS,US,,,,America/Chicago,156.0,31.136940,-88.599720,2,58.0,2026-04-24T02:14:00-0500,2026-04-24T00:00:00-05:00,2026-04-25T00:00:00-05:00,2026-04-24T05:00:00+00:00,2026-04-25T05:00:00+00:00,6
USA24,Poarch Creek,AL,US,,,,America/Chicago,294.0,31.09210,-87.54350,3011,58.0,2026-04-24T05:16:00-0500,2026-04-24T00:00:00-05:00,2026-04-25T00:00:00-05:00,2026-04-24T05:00:00+00:00,2026-04-25T05:00:00+00:00,346
FRPA1,USCRN SITE NEAR FAIRHOPE 3NE,AL,US,,,,America/Chicago,111.0,30.54861,-87.87583,123,58.1,2026-04-24T04:55:00-0500,2026-04-24T00:00:00-05:00,2026-04-25T00:00:00-05:00,2026-04-24T05:00:00+00:00,2026-04-25T05:00:00+00:00,66
PRDA1,PERDIDO RIV FARMS,AL,US,,,,America/Chicago,299.0,31.10923,-87.55277,29,58.1,2026-04-24T05:00:00-0500,2026-04-24T00:00:00-05:00,2026-04-25T00:00:00-05:00,2026-04-24T05:00:00+00:00,2026-04-25T05:00:00+00:00,6
TFBM6,TNC FORT BAYOU,MS,US,,,,America/Chicago,43.0,30.47120,-88.74162,29,58.1,2026-04-24T04:00:00-0500,2026-04-24T00:00:00-05:00,2026-04-25T00:00:00-05:00,2026-04-24T05:00:00+00:00,2026-04-25T05:00:00+00:00,6
MSS39,White Sand,MS,US,,,,America/Chicago,171.0,30.79660,-89.69016,236,58.5,2026-04-24T02:00:00-0500,2026-04-24T00:00:00-05:00,2026-04-25T00:00:00-05:00,2026-04-24T05:00:00+00:00,2026-04-25T05:00:00+00:00,23
USA9,Fairhope,AL,US,,,,America/Chicago,125.0,30.54120,-87.88190,3011,58.8,2026-04-24T05:12:00-0500,2026-04-24T00:00:00-05:00,2026-04-25T00:00:00-05:00,2026-04-24T05:00:00+00:00,2026-04-25T05:00:00+00:00,346
USA5,Saraland,AL,US,,,,America/Chicago,20.0,30.83020,-88.06580,3011,58.9,2026-04-24T05:30:00-0500,2026-04-24T00:00:00-05:00,2026-04-25T00:00:00-05:00,2026-04-24T05:00:00+00:00,2026-04-25T05:00:00+00:00,345
1479W,FSWN Santa Rosa Allentown,FL,US,,,,America/Chicago,213.0,30.78287,-87.09209,249,59.0,2026-04-24T05:40:00-0500,2026-04-24T00:00:00-05:00,2026-04-25T00:00:00-05:00,2026-04-24T05:00:00+00:00,2026-04-25T05:00:00+00:00,34
AU084,N5PA Ellisville,MS,US,,,,America/Chicago,269.03,31.62283,-89.23383,65,59.0,2026-04-24T02:50:00-0500,2026-04-24T00:00:00-05:00,2026-04-25T00:00:00-05:00,2026-04-24T05:00:00+00:00,2026-04-25T05:00:00+00:00,70
C5236,CW5236 PENSACOLA,FL,US,,,,America/Chicago,83.66,30.47172,-87.31883,65,59.0,2026-04-24T05:00:00-0500,2026-04-24T00:00:00-05:00,2026-04-25T00:00:00-05:00,2026-04-24T05:00:00+00:00,2026-04-25T05:00:00+00:00,70
D1458,DW1458 Foley,AL,US,,,,America/Chicago,61.61,30.404,-87.66983,65,59.0,2026-04-24T05:30:00-0500,2026-04-24T00:00:00-05:00,2026-04-25T00:00:00-05:00,2026-04-24T05:00:00+00:00,2026-04-25T05:00:00+00:00,17
E1896,EW1896 Jay,FL,US,,,,America/Chicago,246.0,30.94917,-87.13217,65,59.0,2026-04-24T05:00:00-0500,2026-04-24T00:00:00-05:00,2026-04-25T00:00:00-05:00,2026-04-24T05:00:00+00:00,2026-04-25T05:00:00+00:00,24
G3750,GW3750 PURVIS,MS,US,,,,America/Chicago,318.24,31.20917,-89.36550,65,59.0,2026-04-24T02:05:00-0500,2026-04-24T00:00:00-05:00,2026-04-25T00:00:00-05:00,2026-04-24T05:00:00+00:00,2026-04-25T05:00:00+00:00,70
G4508,GW4508 MONROEVILLE,AL,US,,,,America/Chicago,419.95,31.46317,-87.35017,65,59.0,2026-04-24T04:45:00-0500,2026-04-24T00:00:00-05:00,2026-04-25T00:00:00-05:00,2026-04-24T05:00:00+00:00,2026-04-25T05:00:00+00:00,24
G6990,GW6990 PACE,FL,US,,,,America/Chicago,144.36,30.65700,-87.14667,65,59.0,2026-04-24T04:09:00-0500,2026-04-24T00:00:00-05:00,2026-04-25T00:00:00-05:00,2026-04-24T05:00:00+00:00,2026-04-25T05:00:00+00:00,69
K0R0,Columbia-Marion County Airport,MS,US,,,,America/Chicago,265.0,31.2970,-89.8128,1,59.0,2026-04-24T02:55:00-0500,2026-04-24T00:00:00-05:00,2026-04-25T00:00:00-05:00,2026-04-24T05:00:00+00:00,2026-04-25T05:00:00+00:00,17
KCQF,Sonny Callahan Airport,AL,US,,,,America/Chicago,92.0,30.46100,-87.87700,1,59.0,2026-04-24T04:35:00-0500,2026-04-24T00:00:00-05:00,2026-04-25T00:00:00-05:00,2026-04-24T05:00:00+00:00,2026-04-25T05:00:00+00:00,6
KPQL,Moss Point - Trent Lott International Airport,MS,US,,,,America/Chicago,16.0,30.46305,-88.53155,1,59.0,2026-04-24T00:00:00-0500,2026-04-24T00:00:00-05:00,2026-04-25T00:00:00-05:00,2026-04-24T05:00:00+00:00,2026-04-25T05:00:00+00:00,91
USA19,Leaksville,MS,US,,,,America/Chicago,235.0,31.17650,-88.60010,3011,59.1,2026-04-24T04:14:00-0500,2026-04-24T00:00:00-05:00,2026-04-25T00:00:00-05:00,2026-04-24T05:00:00+00:00,2026-04-25T05:00:00+00:00,347
1894W,FSWN Escambia Molino,FL,US,,,,America/Chicago,194.0,30.71569,-87.34388,249,59.4,2026-04-24T05:20:00-0500,2026-04-24T00:00:00-05:00,2026-04-25T00:00:00-05:00,2026-04-24T05:00:00+00:00,2026-04-25T05:00:00+00:00,34
SSXXQ,Milton Riverwalk South,FL,US,,,,America/Chicago,,30.62275,-87.03485,248,59.4,2026-04-24T05:04:00-0500,2026-04-24T00:00:00-05:00,2026-04-25T00:00:00-05:00,2026-04-24T05:00:00+00:00,2026-04-25T05:00:00+00:00,61
1213W,Pace Fire Rescue Station 4,FL,US,,,,America/Chicago,190.0,30.69987,-87.18477,249,59.5,2026-04-24T05:40:00-0500,2026-04-24T00:00:00-05:00,2026-04-25T00:00:00-05:00,2026-04-24T05:00:00+00:00,2026-04-25T05:00:00+00:00,19
1584W,Central School,FL,US,,,,America/Chicago,200.0,30.76544,-87.07391,249,59.7,2026-04-24T05:40:00-0500,2026-04-24T00:00:00-05:00,2026-04-25T00:00:00-05:00,2026-04-24T05:00:00+00:00,2026-04-25T05:00:00+00:00,34
USA8,Elberta,AL,US,,,,America/Chicago,73.0,30.41130,-87.58500,3011,59.7,2026-04-24T05:26:00-0500,2026-04-24T00:00:00-05:00,2026-04-25T00:00:00-05:00,2026-04-24T05:00:00+00:00,2026-04-25T05:00:00+00:00,346
0904W,Pace High School,FL,US,,,,America/Chicago,131.0,30.61265,-87.15355,249,59.8,2026-04-24T05:30:00-0500,2026-04-24T00:00:00-05:00,2026-04-25T00:00:00-05:00,2026-04-24T05:00:00+00:00,2026-04-25T05:00:00+00:00,34
0902W,Milton High School,FL,US,,,,America/Chicago,75.0,30.63261,-87.04482,249,59.9,2026-04-24T05:10:00-0500,2026-04-24T00:00:00-05:00,2026-04-25T00:00:00-05:00,2026-04-24T05:00:00+00:00,2026-04-25T05:00:00+00:00,34
USA3,Grand Bay,AL,US,,,,America/Chicago,54.0,30.50650,-88.36800,3011,59.9,2026-04-24T01:52:00-0500,2026-04-24T00:00:00-05:00,2026-04-25T00:00:00-05:00,2026-04-24T05:00:00+00:00,2026-04-25T05:00:00+00:00,345
AX128,KN4CGX PENSACOLA,FL,US,,,,America/Chicago,111.55,30.51750,-87.36583,65,60.0,2026-04-24T05:15:00-0500,2026-04-24T00:00:00-05:00,2026-04-25T00:00:00-05:00,2026-04-24T05:00:00+00:00,2026-04-25T05:00:00+00:00,24
CKWM6,CAMP KELLER,MS,US,,,,America/Chicago,130.0,30.524230,-88.982030,2,60.0,2026-04-24T03:00:00-0500,2026-04-24T00:00:00-05:00,2026-04-25T00:00:00-05:00,2026-04-24T05:00:00+00:00,2026-04-25T05:00:00+00:00,6
D4135,DW4135 Milton,FL,US,,,,America/Chicago,150.66,30.66033,-87.04733,65,60.0,2026-04-24T05:43:00-0500,2026-04-24T00:00:00-05:00,2026-04-25T00:00:00-05:00,2026-04-24T05:00:00+00:00,2026-04-25T05:00:00+00:00,56
D8180,DW8180 Pace,FL,US,,,,America/Chicago,43.0,30.58917,-87.15283,65,60.0,2026-04-24T05:05:00-0500,2026-04-24T00:00:00-05:00,2026-04-25T00:00:00-05:00,2026-04-24T05:00:00+00:00,2026-04-25T05:00:00+00:00,57
E2701,EW2701 Gulfport,MS,US,,,,America/Chicago,73.0,30.49600,-89.07517,65,60.0,2026-04-24T02:31:00-0500,2026-04-24T00:00:00-05:00,2026-04-25T00:00:00-05:00,2026-04-24T05:00:00+00:00,2026-04-25T05:00:00+00:00,24
G2037,GW2037 WILMER,AL,US,,,,America/Chicago,241.01,30.87717,-88.25950,65,60.0,2026-04-24T01:13:00-0500,2026-04-24T00:00:00-05:00,2026-04-25T00:00:00-05:00,2026-04-24T05:00:00+00:00,2026-04-25T05:00:00+00:00,68
G5750,GW5750 FOLEY,AL,US,,,,America/Chicago,91.86,30.43483,-87.75467,65,60.0,2026-04-24T03:49:00-0500,2026-04-24T00:00:00-05:00,2026-04-25T00:00:00-05:00,2026-04-24T05:00:00+00:00,2026-04-25T05:00:00+00:00,69
1208W,Northview High School,FL,US,,,,America/Chicago,276.0,30.96756,-87.40608,249,60.2,2026-04-24T04:30:00-0500,2026-04-24T00:00:00-05:00,2026-04-25T00:00:00-05:00,2026-04-24T05:00:00+00:00,2026-04-25T05:00:00+00:00,34
1687W,FSWN Escambia Walnut Hill,FL,US,,,,America/Chicago,272.0,30.89988,-87.47842,249,60.2,2026-04-24T05:40:00-0500,2026-04-24T00:00:00-05:00,2026-04-25T00:00:00-05:00,2026-04-24T05:00:00+00:00,2026-04-25T05:00:00+00:00,34
2057W,FSWN Santa Rosa EOC,FL,US,,,,America/Chicago,98.0,30.59828,-87.07002,249,60.2,2026-04-24T05:40:00-0500,2026-04-24T00:00:00-05:00,2026-04-25T00:00:00-05:00,2026-04-24T05:00:00+00:00,2026-04-25T05:00:00+00:00,34
0900W,Jay High School,FL,US,,,,America/Chicago,282.0,30.94114,-87.15685,249,60.3,2026-04-24T05:20:00-0500,2026-04-24T00:00:00-05:00,2026-04-25T00:00:00-05:00,2026-04-24T05:00:00+00:00,2026-04-25T05:00:00+00:00,34
USA10,Foley,AL,US,,,,America/Chicago,56.0,30.36990,-87.64560,3011,60.4,2026-04-24T05:23:00-0500,2026-04-24T00:00:00-05:00,2026-04-25T00:00:00-05:00,2026-04-24T05:00:00+00:00,2026-04-25T05:00:00+00:00,346
USA7,Robertsdale,AL,US,,,,America/Chicago,154.0,30.58400,-87.73010,3011,60.4,2026-04-24T05:40:00-0500,2026-04-24T00:00:00-05:00,2026-04-25T00:00:00-05:00,2026-04-24T05:00:00+00:00,2026-04-25T05:00:00+00:00,346
BMTA1,Bay Minette FS,AL,US,,,,America/Chicago,269.0,30.88040,-87.78140,3011,60.8,2026-04-24T04:44:00-0500,2026-04-24T00:00:00-05:00,2026-04-25T00:00:00-05:00,2026-04-24T05:00:00+00:00,2026-04-25T05:00:00+00:00,345
WKXA1,NERRS METEOROLOGICAL SITE AT WEEKS BAY IN FAIRHOPE,AL,US,,,,America/Chicago,16.0,30.41611,-87.82611,188,60.9,2026-04-24T04:45:00-0500,2026-04-24T00:00:00-05:00,2026-04-25T00:00:00-05:00,2026-04-24T05:00:00+00:00,2026-04-25T05:00:00+00:00,20
AW123,N0KWA TALISHEEK,LA,US,,,,America/Chicago,59.05,30.53217,-89.87400,65,61.0,2026-04-24T03:13:00-0500,2026-04-24T00:00:00-05:00,2026-04-25T00:00:00-05:00,2026-04-24T05:00:00+00:00,2026-04-25T05:00:00+00:00,69
AW503,KX4DU FAIRHOPE,AL,US,,,,America/Chicago,104.0,30.49100,-87.87483,65,61.0,2026-04-24T04:55:00-0500,2026-04-24T00:00:00-05:00,2026-04-25T00:00:00-05:00,2026-04-24T05:00:00+00:00,2026-04-25T05:00:00+00:00,70
BLCM6,BLACK CREEK,MS,US,,,,America/Chicago,277.0,30.848930,-89.033920,2,61.0,2026-04-24T00:00:00-0500,2026-04-24T00:00:00-05:00,2026-04-25T00:00:00-05:00,2026-04-24T05:00:00+00:00,2026-04-25T05:00:00+00:00,6
E1604,EW1604 GAUTIER,MS,US,,,,America/Chicago,19.0,30.45950,-88.64750,65,61.0,2026-04-24T04:45:00-0500,2026-04-24T00:00:00-05:00,2026-04-25T00:00:00-05:00,2026-04-24T05:00:00+00:00,2026-04-25T05:00:00+00:00,24
E7714,EW7714 Mobile,AL,US,,,,America/Chicago,183.33,30.68550,-88.27967,65,61.0,2026-04-24T02:46:00-0500,2026-04-24T00:00:00-05:00,2026-04-25T00:00:00-05:00,2026-04-24T05:00:00+00:00,2026-04-25T05:00:00+00:00,52
F7820,FW7820 Hattiesburg,MS,US,,,,America/Chicago,361.81,31.32883,-89.44100,65,61.0,2026-04-24T03:00:00-0500,2026-04-24T00:00:00-05:00,2026-04-25T00:00:00-05:00,2026-04-24T05:00:00+00:00,2026-04-25T05:00:00+00:00,68
G0554,GW0554 Perkinston,MS,US,,,,America/Chicago,240.0,30.73850,-89.12817,65,61.0,2026-04-24T00:03:00-0500,2026-04-24T00:00:00-05:00,2026-04-25T00:00:00-05:00,2026-04-24T05:00:00+00:00,2026-04-25T05:00:00+00:00,68
G2684,GW2684 Robertsdale,AL,US,,,,America/Chicago,141.08,30.53967,-87.71467,65,61.0,2026-04-24T04:45:00-0500,2026-04-24T00:00:00-05:00,2026-04-25T00:00:00-05:00,2026-04-24T05:00:00+00:00,2026-04-25T05:00:00+00:00,70
G4878,GW4878 CITRONELLE,AL,US,,,,America/Chicago,301.84,31.09050,-88.22900,65,61.0,2026-04-24T04:32:00-0500,2026-04-24T00:00:00-05:00,2026-04-25T00:00:00-05:00,2026-04-24T05:00:00+00:00,2026-04-25T05:00:00+00:00,29
G5674,GW5674 MONTEREY,LA,US,,,,America/Chicago,50.0,31.31283,-91.83450,65,61.0,2026-04-24T04:26:00-0500,2026-04-24T00:00:00-05:00,2026-04-25T00:00:00-05:00,2026-04-24T05:00:00+00:00,2026-04-25T05:00:00+00:00,15
G6029,GW6029 FOLEY,AL,US,,,,America/Chicago,278.87,30.41333,-87.69133,65,61.0,2026-04-24T05:29:00-0500,2026-04-24T00:00:00-05:00,2026-04-25T00:00:00-05:00,2026-04-24T05:00:00+00:00,2026-04-25T05:00:00+00:00,69
G6059,GW6059 PEARL RIVER,LA,US,,,,America/Chicago,39.37,30.36817,-89.77317,65,61.0,2026-04-24T05:30:00-0500,2026-04-24T00:00:00-05:00,2026-04-25T00:00:00-05:00,2026-04-24T05:00:00+00:00,2026-04-25T05:00:00+00:00,24
G6243,GW6243 PETAL,MS,US,,,,America/Chicago,515.09,31.35150,-89.20467,65,61.0,2026-04-24T03:45:00-0500,2026-04-24T00:00:00-05:00,2026-04-25T00:00:00-05:00,2026-04-24T05:00:00+00:00,2026-04-25T05:00:00+00:00,24
G6344,GW6344 BUSH,LA,US,,,,America/Chicago,88.58,30.60533,-89.94750,65,61.0,2026-04-24T02:45:00-0500,2026-04-24T00:00:00-05:00,2026-04-25T00:00:00-05:00,2026-04-24T05:00:00+00:00,2026-04-25T05:00:00+00:00,24
GRBM6,GRAND BAY,MS,US,,,,America/Chicago,7.0,30.438330,-88.425560,2,61.0,2026-04-24T00:50:00-0500,2026-04-24T00:00:00-05:00,2026-04-25T00:00:00-05:00,2026-04-24T05:00:00+00:00,2026-04-25T05:00:00+00:00,5
KBXA,"Bogalusa, George R Carr Memorial Air Field",LA,US,,,,America/Chicago,118.0,30.81361,-89.86472,1,61.0,2026-04-24T03:55:00-0500,2026-04-24T00:00:00-05:00,2026-04-25T00:00:00-05:00,2026-04-24T05:00:00+00:00,2026-04-25T05:00:00+00:00,6
NNHM6,HANCOCK,MS,US,,,,America/Chicago,98.0,30.451110,-89.454440,2,61.0,2026-04-24T01:09:00-0500,2026-04-24T00:00:00-05:00,2026-04-25T00:00:00-05:00,2026-04-24T05:00:00+00:00,2026-04-25T05:00:00+00:00,6
SHCM6,MS SANDHILL CRANE - FTS,MS,US,,,,America/Chicago,25.0,30.452780,-88.661670,2,61.0,2026-04-24T00:51:00-0500,2026-04-24T00:00:00-05:00,2026-04-25T00:00:00-05:00,2026-04-24T05:00:00+00:00,2026-04-25T05:00:00+00:00,5
1089W,Chumuckla Elementary School,FL,US,,,,America/Chicago,217.0,30.77925,-87.22295,249,61.1,2026-04-24T03:50:00-0500,2026-04-24T00:00:00-05:00,2026-04-25T00:00:00-05:00,2026-04-24T05:00:00+00:00,2026-04-25T05:00:00+00:00,34
2216W,UWF Rec Plex North,FL,US,,,,America/Chicago,33.0,30.54595,-87.21278,249,61.1,2026-04-24T05:20:00-0500,2026-04-24T00:00:00-05:00,2026-04-25T00:00:00-05:00,2026-04-24T05:00:00+00:00,2026-04-25T05:00:00+00:00,34
1684W,FSWN Escambia Beulah Fire Station,FL,US,,,,America/Chicago,131.0,30.53630,-87.39425,249,61.5,2026-04-24T05:40:00-0500,2026-04-24T00:00:00-05:00,2026-04-25T00:00:00-05:00,2026-04-24T05:00:00+00:00,2026-04-25T05:00:00+00:00,34
AESM6,Agricola,MS,US,,,,America/Chicago,225.0,30.81700,-88.52050,3011,61.5,2026-04-24T02:32:00-0500,2026-04-24T00:00:00-05:00,2026-04-25T00:00:00-05:00,2026-04-24T05:00:00+00:00,2026-04-25T05:00:00+00:00,340
LSU08,Hammond,LA,US,,,,America/Chicago,46.0,30.50309,-90.37707,256,61.5,2026-04-24T05:14:00-0500,2026-04-24T00:00:00-05:00,2026-04-25T00:00:00-05:00,2026-04-24T05:00:00+00:00,2026-04-25T05:00:00+00:00,341
NDBCWKXA1,"Safe Harbor Met Station, Weeks Bay Reserve, AL",AL,US,,,,America/Chicago,10.99,30.421,-87.828,286,61.5,2026-04-24T03:45:00-0500,2026-04-24T00:00:00-05:00,2026-04-25T00:00:00-05:00,2026-04-24T05:00:00+00:00,2026-04-25T05:00:00+00:00,16
1774W,Cottage Hill Christian Academy,AL,US,,,,America/Chicago,118.0,30.65139,-88.21527,249,61.6,2026-04-24T03:50:00-0500,2026-04-24T00:00:00-05:00,2026-04-25T00:00:00-05:00,2026-04-24T05:00:00+00:00,2026-04-25T05:00:00+00:00,34
KOPA1,KOPTIS FARMS,AL,US,,,,America/Chicago,135.0,30.52380,-87.69797,29,61.7,2026-04-24T04:00:00-0500,2026-04-24T00:00:00-05:00,2026-04-25T00:00:00-05:00,2026-04-24T05:00:00+00:00,2026-04-25T05:00:00+00:00,6
BCCM6,BOGUE CHITTO,MS,US,,,,America/Chicago,126.0,30.661940,-89.795560,2,62.0,2026-04-24T03:12:00-0500,2026-04-24T00:00:00-05:00,2026-04-25T00:00:00-05:00,2026-04-24T05:00:00+00:00,2026-04-25T05:00:00+00:00,6
C1353,CW1353 Mobile,AL,US,,,,America/Chicago,160.6,30.60783,-88.25833,65,62.0,2026-04-24T00:54:00-0500,2026-04-24T00:00:00-05:00,2026-04-25T00:00:00-05:00,2026-04-24T05:00:00+00:00,2026-04-25T05:00:00+00:00,35
D6471,DW6471 Daphne,AL,US,,,,America/Chicago,158.99,30.63016,-87.86720,65,62.0,2026-04-24T02:52:00-0500,2026-04-24T00:00:00-05:00,2026-04-25T00:00:00-05:00,2026-04-24T05:00:00+00:00,2026-04-25T05:00:00+00:00,68
F9403,FW9403 Summerdale,AL,US,,,,America/Chicago,129.0,30.48733,-87.74317,65,62.0,2026-04-24T04:36:00-0500,2026-04-24T00:00:00-05:00,2026-04-25T00:00:00-05:00,2026-04-24T05:00:00+00:00,2026-04-25T05:00:00+00:00,68
G0093,GW0093 Mandeville,LA,US,,,,America/Chicago,6.82,30.34967,-90.06033,65,62.0,2026-04-24T02:03:00-0500,2026-04-24T00:00:00-05:00,2026-04-25T00:00:00-05:00,2026-04-24T05:00:00+00:00,2026-04-25T05:00:00+00:00,64
G3439,GW3439 CARRIERE,MS,US,,,,America/Chicago,203.41,30.61683,-89.56067,65,62.0,2026-04-24T02:10:00-0500,2026-04-24T00:00:00-05:00,2026-04-25T00:00:00-05:00,2026-04-24T05:00:00+00:00,2026-04-25T05:00:00+00:00,70
G6357,GW6357 SLIDELL,LA,US,,,,America/Chicago,16.4,30.31283,-89.81633,65,62.0,2026-04-24T02:00:00-0500,2026-04-24T00:00:00-05:00,2026-04-25T00:00:00-05:00,2026-04-24T05:00:00+00:00,2026-04-25T05:00:00+00:00,24
GHAA1,GROVE HILL,AL,US,,,,America/Chicago,445.0,31.690690,-87.760580,2,62.0,2026-04-24T02:26:00-0500,2026-04-24T00:00:00-05:00,2026-04-25T00:00:00-05:00,2026-04-24T05:00:00+00:00,2026-04-25T05:00:00+00:00,6
NLOF1,NAVAL LIVE OAKS,FL,US,,,,America/Chicago,15.0,30.366390,-87.1375,2,62.0,2026-04-24T05:22:00-0500,2026-04-24T00:00:00-05:00,2026-04-25T00:00:00-05:00,2026-04-24T05:00:00+00:00,2026-04-25T05:00:00+00:00,6
RMAM6,MARION,MS,US,,,,America/Chicago,380.0,31.211390,-89.9225,2,62.0,2026-04-24T02:09:00-0500,2026-04-24T00:00:00-05:00,2026-04-25T00:00:00-05:00,2026-04-24T05:00:00+00:00,2026-04-25T05:00:00+00:00,6
UP144,MELVIL,LA,US,,,,America/Chicago,36.0,30.70451,-91.82711,64,62.0,2026-04-24T03:14:00-0500,2026-04-24T00:00:00-05:00,2026-04-25T00:00:00-05:00,2026-04-24T05:00:00+00:00,2026-04-25T05:00:00+00:00,8
UP390,PLAQMN,LA,US,,,,America/Chicago,24.0,30.26172,-91.21897,64,62.0,2026-04-24T02:16:00-0500,2026-04-24T00:00:00-05:00,2026-04-25T00:00:00-05:00,2026-04-24T05:00:00+00:00,2026-04-25T05:00:00+00:00,14
UP887,VENEER,LA,US,,,,America/Chicago,94.0,31.65665,-92.38996,64,62.0,2026-04-24T04:21:00-0500,2026-04-24T00:00:00-05:00,2026-04-25T00:00:00-05:00,2026-04-24T05:00:00+00:00,2026-04-25T05:00:00+00:00,5
USA1,USA West,AL,US,,,,America/Chicago,170.0,30.69440,-88.19440,3011,62.0,2026-04-24T04:38:00-0500,2026-04-24T00:00:00-05:00,2026-04-25T00:00:00-05:00,2026-04-24T05:00:00+00:00,2026-04-25T05:00:00+00:00,345
KASD,"Slidell, Slidell Airport",LA,US,,,,America/Chicago,30.0,30.34306,-89.82194,1,62.1,2026-04-24T01:53:00-0500,2026-04-24T00:00:00-05:00,2026-04-25T00:00:00-05:00,2026-04-24T05:00:00+00:00,2026-04-25T05:00:00+00:00,78
KESF,Alexandria Esler Regional Airport,LA,US,,,,America/Chicago,85.0,31.39634,-92.28273,1,62.1,2026-04-24T02:53:00-0500,2026-04-24T00:00:00-05:00,2026-04-25T00:00:00-05:00,2026-04-24T05:00:00+00:00,2026-04-25T05:00:00+00:00,74
LM009,ULM_ACME,LA,US,,,,America/Chicago,44.9997,31.34476,-91.71883,313,62.1,2026-04-24T03:25:00-0500,2026-04-24T00:00:00-05:00,2026-04-25T00:00:00-05:00,2026-04-24T05:00:00+00:00,2026-04-25T05:00:00+00:00,65
MSS38,Poplarville,MS,US,,,,America/Chicago,328.0,30.83972,-89.54644,236,62.1,2026-04-24T02:45:00-0500,2026-04-24T00:00:00-05:00,2026-04-25T00:00:00-05:00,2026-04-24T05:00:00+00:00,2026-04-25T05:00:00+00:00,23
MSS44,McNeill,MS,US,,,,America/Chicago,229.0,30.65967,-89.63633,236,62.3,2026-04-24T02:30:00-0500,2026-04-24T00:00:00-05:00,2026-04-25T00:00:00-05:00,2026-04-24T05:00:00+00:00,2026-04-25T05:00:00+00:00,23
2117W,Foley Elementary School,AL,US,,,,America/Chicago,115.0,30.40956,-87.69092,249,62.5,2026-04-24T05:40:00-0500,2026-04-24T00:00:00-05:00,2026-04-25T00:00:00-05:00,2026-04-24T05:00:00+00:00,2026-04-25T05:00:00+00:00,17
LM027,ULM_KENT,LA,US,,,,America/Chicago,251.001,30.8852,-90.6086,313,62.5,2026-04-24T02:15:00-0500,2026-04-24T00:00:00-05:00,2026-04-25T00:00:00-05:00,2026-04-24T05:00:00+00:00,2026-04-25T05:00:00+00:00,67
KMJD,Picayune Municipal Airport,MS,US,,,,America/Chicago,55.0,30.48747,-89.65119,1,62.6,2026-04-24T03:35:00-0500,2026-04-24T00:00:00-05:00,2026-04-25T00:00:00-05:00,2026-04-24T05:00:00+00:00,2026-04-25T05:00:00+00:00,7
KMOB,"Mobile, Mobile Regional Airport",AL,US,,,,America/Chicago,217.0,30.68833,-88.24556,1,62.6,2026-04-24T02:10:00-0500,2026-04-24T00:00:00-05:00,2026-04-25T00:00:00-05:00,2026-04-24T05:00:00+00:00,2026-04-25T05:00:00+00:00,75
1602W,UWF Sports Complex,FL,US,,,,America/Chicago,89.0,30.54068,-87.20447,249,62.7,2026-04-24T05:40:00-0500,2026-04-24T00:00:00-05:00,2026-04-25T00:00:00-05:00,2026-04-24T05:00:00+00:00,2026-04-25T05:00:00+00:00,34
AW259,N5YHM-13 ABITA SPRINGS,LA,US,,,,America/Chicago,14.99,30.47100,-90.04300,65,63.0,2026-04-24T02:23:00-0500,2026-04-24T00:00:00-05:00,2026-04-25T00:00:00-05:00,2026-04-24T05:00:00+00:00,2026-04-25T05:00:00+00:00,69
C9352,CW9352 Pensacola,FL,US,,,,America/Chicago,19.91,30.33417,-87.35500,65,63.0,2026-04-24T05:10:00-0500,2026-04-24T00:00:00-05:00,2026-04-25T00:00:00-05:00,2026-04-24T05:00:00+00:00,2026-04-25T05:00:00+00:00,35
F0324,FW0324 Thibodaux,LA,US,,,,America/Chicago,4.63,29.87333,-90.81733,65,63.0,2026-04-24T03:50:00-0500,2026-04-24T00:00:00-05:00,2026-04-25T00:00:00-05:00,2026-04-24T05:00:00+00:00,2026-04-25T05:00:00+00:00,70
F1251,FW1251 Lacombe,LA,US,,,,America/Chicago,17.65,30.32667,-89.97017,65,63.0,2026-04-24T02:45:00-0500,2026-04-24T00:00:00-05:00,2026-04-25T00:00:00-05:00,2026-04-24T05:00:00+00:00,2026-04-25T05:00:00+00:00,24
F4411,FW4411 Milton,FL,US,,,,America/Chicago,5.28,30.46000,-87.09667,65,63.0,2026-04-24T05:13:00-0500,2026-04-24T00:00:00-05:00,2026-04-25T00:00:00-05:00,2026-04-24T05:00:00+00:00,2026-04-25T05:00:00+00:00,69
G2297,GW2297 LUCEDALE,MS,US,,,,America/Chicago,269.03,30.92300,-88.58983,65,63.0,2026-04-24T03:15:00-0500,2026-04-24T00:00:00-05:00,2026-04-25T00:00:00-05:00,2026-04-24T05:00:00+00:00,2026-04-25T05:00:00+00:00,24
G2672,GW2672 West Mobile,AL,US,,,,America/Chicago,206.99,30.67950,-88.24017,65,63.0,2026-04-24T00:15:00-0500,2026-04-24T00:00:00-05:00,2026-04-25T00:00:00-05:00,2026-04-24T05:00:00+00:00,2026-04-25T05:00:00+00:00,24
G5825,GW5825 FOLSOM,LA,US,,,,America/Chicago,108.27,30.62933,-90.22483,65,63.0,2026-04-24T01:10:00-0500,2026-04-24T00:00:00-05:00,2026-04-25T00:00:00-05:00,2026-04-24T05:00:00+00:00,2026-04-25T05:00:00+00:00,61
KNPA,Pensacola Naval Air Station,FL,US,,,,America/Chicago,16.0,30.35641,-87.32326,1,63.0,2026-04-24T03:56:00-0500,2026-04-24T00:00:00-05:00,2026-04-25T00:00:00-05:00,2026-04-24T05:00:00+00:00,2026-04-25T05:00:00+00:00,5
UP862,CHNYVL,LA,US,,,,America/Chicago,69.0,30.99376,-92.25709,64,63.0,2026-04-24T02:15:00-0500,2026-04-24T00:00:00-05:00,2026-04-25T00:00:00-05:00,2026-04-24T05:00:00+00:00,2026-04-25T05:00:00+00:00,7
UR373,GRSTE2,LA,US,,,,America/Chicago,22.0,30.40680,-91.42288,64,63.0,2026-04-24T02:26:00-0500,2026-04-24T00:00:00-05:00,2026-04-25T00:00:00-05:00,2026-04-24T05:00:00+00:00,2026-04-25T05:00:00+00:00,13
UR771,GRSTE1,LA,US,,,,America/Chicago,30.0,30.40680,-91.42288,64,63.0,2026-04-24T02:04:00-0500,2026-04-24T00:00:00-05:00,2026-04-25T00:00:00-05:00,2026-04-24T05:00:00+00:00,2026-04-25T05:00:00+00:00,12
YLBA1,Bayou La Batre,AL,US,,,,America/Chicago,13.0,30.3956,-88.2478,3011,63.0,2026-04-24T04:17:00-0500,2026-04-24T00:00:00-05:00,2026-04-25T00:00:00-05:00,2026-04-24T05:00:00+00:00,2026-04-25T05:00:00+00:00,346
MSS12,Coastal Research and Extension Center,MS,US,,,,America/Chicago,56.0,30.44102,-88.94368,236,63.1,2026-04-24T05:30:00-0500,2026-04-24T00:00:00-05:00,2026-04-25T00:00:00-05:00,2026-04-24T05:00:00+00:00,2026-04-25T05:00:00+00:00,23
1196W,Escambia High School,FL,US,,,,America/Chicago,75.0,30.42699,-87.29960,249,63.4,2026-04-24T05:40:00-0500,2026-04-24T00:00:00-05:00,2026-04-25T00:00:00-05:00,2026-04-24T05:00:00+00:00,2026-04-25T05:00:00+00:00,34
KREG,Louisiana Regional Airport,LA,US,,,,America/Chicago,14.0,30.1714,-90.9404,1,63.5,2026-04-24T03:55:00-0500,2026-04-24T00:00:00-05:00,2026-04-25T00:00:00-05:00,2026-04-24T05:00:00+00:00,2026-04-25T05:00:00+00:00,6
SSGSP,Floridatown Park,FL,US,,,,America/Chicago,26.0,30.58079,-87.16163,248,63.5,2026-04-24T03:45:00-0500,2026-04-24T00:00:00-05:00,2026-04-25T00:00:00-05:00,2026-04-24T05:00:00+00:00,2026-04-25T05:00:00+00:00,58
1206W,Tate High School,FL,US,,,,America/Chicago,167.0,30.57754,-87.30088,249,63.6,2026-04-24T05:20:00-0500,2026-04-24T00:00:00-05:00,2026-04-25T00:00:00-05:00,2026-04-24T05:00:00+00:00,2026-04-25T05:00:00+00:00,34
0172W,UWF Pace Library,FL,US,,,,America/Chicago,79.0,30.55007,-87.21730,249,64.0,2026-04-24T05:40:00-0500,2026-04-24T00:00:00-05:00,2026-04-25T00:00:00-05:00,2026-04-24T05:00:00+00:00,2026-04-25T05:00:00+00:00,34
AV585,WI5ARD Bush,LA,US,,,,America/Chicago,147.64,30.60083,-89.96933,65,64.0,2026-04-24T01:40:00-0500,2026-04-24T00:00:00-05:00,2026-04-25T00:00:00-05:00,2026-04-24T05:00:00+00:00,2026-04-25T05:00:00+00:00,70
D2721,DW2721 Ponchatoula,LA,US,,,,America/Chicago,23.0,30.45999,-90.44988,65,64.0,2026-04-24T03:25:00-0500,2026-04-24T00:00:00-05:00,2026-04-25T00:00:00-05:00,2026-04-24T05:00:00+00:00,2026-04-25T05:00:00+00:00,59
E1616,EW1616 Baton Rouge,LA,US,,,,America/Chicago,37.63,30.41100,-90.94720,65,64.0,2026-04-24T02:05:00-0500,2026-04-24T00:00:00-05:00,2026-04-25T00:00:00-05:00,2026-04-24T05:00:00+00:00,2026-04-25T05:00:00+00:00,70
F0278,FW0278 Summit,MS,US,,,,America/Chicago,383.56,31.26650,-90.52733,65,64.0,2026-04-24T01:15:00-0500,2026-04-24T00:00:00-05:00,2026-04-25T00:00:00-05:00,2026-04-24T05:00:00+00:00,2026-04-25T05:00:00+00:00,24
F9380,FW9380 Gulf Breeze,FL,US,,,,America/Chicago,15.22,30.36100,-87.19100,65,64.0,2026-04-24T05:04:00-0500,2026-04-24T00:00:00-05:00,2026-04-25T00:00:00-05:00,2026-04-24T05:00:00+00:00,2026-04-25T05:00:00+00:00,69
F9828,KC5DP Tickfaw,LA,US,,,,America/Chicago,73.49,30.58516,-90.49816,65,64.0,2026-04-24T03:23:00-0500,2026-04-24T00:00:00-05:00,2026-04-25T00:00:00-05:00,2026-04-24T05:00:00+00:00,2026-04-25T05:00:00+00:00,69
G0582,GW0582 Slidel,LA,US,,,,America/Chicago,18.6,30.31983,-89.77150,65,64.0,2026-04-24T00:00:00-0500,2026-04-24T00:00:00-05:00,2026-04-25T00:00:00-05:00,2026-04-24T05:00:00+00:00,2026-04-25T05:00:00+00:00,70
G4271,GW4271 GULF BREEZE,FL,US,,,,America/Chicago,14.99,30.38633,-87.05217,65,64.0,2026-04-24T05:22:00-0500,2026-04-24T00:00:00-05:00,2026-04-25T00:00:00-05:00,2026-04-24T05:00:00+00:00,2026-04-25T05:00:00+00:00,68
G6342,GW6342 BUSH,LA,US,,,,America/Chicago,183.73,30.62500,-90.04400,65,64.0,2026-04-24T02:30:00-0500,2026-04-24T00:00:00-05:00,2026-04-25T00:00:00-05:00,2026-04-24T05:00:00+00:00,2026-04-25T05:00:00+00:00,23
G6343,GW6343 FOLSOM,LA,US,,,,America/Chicago,154.2,30.62883,-90.18833,65,64.0,2026-04-24T03:00:00-0500,2026-04-24T00:00:00-05:00,2026-04-25T00:00:00-05:00,2026-04-24T05:00:00+00:00,2026-04-25T05:00:00+00:00,20
G6346,GW6346 LACOMBE,LA,US,,,,America/Chicago,22.97,30.35700,-89.92183,65,64.0,2026-04-24T04:15:00-0500,2026-04-24T00:00:00-05:00,2026-04-25T00:00:00-05:00,2026-04-24T05:00:00+00:00,2026-04-25T05:00:00+00:00,20
G6841,GW6841 BREAUX BRIDGE,LA,US,,,,America/Chicago,23.0,30.25950,-91.84000,65,64.0,2026-04-24T01:30:00-0500,2026-04-24T00:00:00-05:00,2026-04-25T00:00:00-05:00,2026-04-24T05:00:00+00:00,2026-04-25T05:00:00+00:00,68
G7241,GW7241 PENSACOLA,FL,US,,,,America/Chicago,49.21,30.42783,-87.19417,65,64.0,2026-04-24T05:35:00-0500,2026-04-24T00:00:00-05:00,2026-04-25T00:00:00-05:00,2026-04-24T05:00:00+00:00,2026-04-25T05:00:00+00:00,69
MPAM6,PIKE,MS,US,,,,America/Chicago,366.0,31.186940,-90.478060,2,64.0,2026-04-24T01:09:00-0500,2026-04-24T00:00:00-05:00,2026-04-25T00:00:00-05:00,2026-04-24T05:00:00+00:00,2026-04-25T05:00:00+00:00,6
UP161,FORDOC,LA,US,,,,America/Chicago,35.0,30.59352,-91.61386,64,64.0,2026-04-24T02:19:00-0500,2026-04-24T00:00:00-05:00,2026-04-25T00:00:00-05:00,2026-04-24T05:00:00+00:00,2026-04-25T05:00:00+00:00,13
1203W,Pine Forest High School,FL,US,,,,America/Chicago,112.0,30.48807,-87.29538,249,64.1,2026-04-24T04:20:00-0500,2026-04-24T00:00:00-05:00,2026-04-25T00:00:00-05:00,2026-04-24T05:00:00+00:00,2026-04-25T05:00:00+00:00,34
MSS20,Natchez,MS,US,,,,America/Chicago,75.0,31.34067,-91.39999,236,64.2,2026-04-24T02:30:00-0500,2026-04-24T00:00:00-05:00,2026-04-25T00:00:00-05:00,2026-04-24T05:00:00+00:00,2026-04-25T05:00:00+00:00,23
KARA,Acadiana Regional Airport,LA,US,,,,America/Chicago,13.0,30.02918,-91.88451,1,64.4,2026-04-24T01:15:00-0500,2026-04-24T00:00:00-05:00,2026-04-25T00:00:00-05:00,2026-04-24T05:00:00+00:00,2026-04-25T05:00:00+00:00,80
KBTR,"Baton Rouge, Baton Rouge Metropolitan, Ryan Field",LA,US,,,,America/Chicago,69.0,30.53722,-91.14694,1,64.4,2026-04-24T01:35:00-0500,2026-04-24T00:00:00-05:00,2026-04-25T00:00:00-05:00,2026-04-24T05:00:00+00:00,2026-04-25T05:00:00+00:00,76
KGPT,Gulfport - Gulfport-Biloxi International Airport,MS,US,,,,America/Chicago,26.0,30.41194,-89.08083,1,64.4,2026-04-24T03:55:00-0500,2026-04-24T00:00:00-05:00,2026-04-25T00:00:00-05:00,2026-04-24T05:00:00+00:00,2026-04-25T05:00:00+00:00,65
KHEZ,"Natchez, Hardy-Anders Field Natchez-Adams County Airport",MS,US,,,,America/Chicago,264.0,31.61593,-91.29724,1,64.4,2026-04-24T02:55:00-0500,2026-04-24T00:00:00-05:00,2026-04-25T00:00:00-05:00,2026-04-24T05:00:00+00:00,2026-04-25T05:00:00+00:00,78
KLFT,"Lafayette, Lafayette Regional Airport",LA,US,,,,America/Chicago,39.0,30.20222,-91.99306,1,64.4,2026-04-24T02:10:00-0500,2026-04-24T00:00:00-05:00,2026-04-25T00:00:00-05:00,2026-04-24T05:00:00+00:00,2026-04-25T05:00:00+00:00,83
KPNS,Pensacola - Pensacola International Airport,FL,US,,,,America/Chicago,118.0,30.47806,-87.18694,1,64.4,2026-04-24T03:10:00-0500,2026-04-24T00:00:00-05:00,2026-04-25T00:00:00-05:00,2026-04-24T05:00:00+00:00,2026-04-25T05:00:00+00:00,74
SSTRN,Perdido Bay,,,,,,America/Chicago,,30.41397,-87.37181,248,64.4,2026-04-24T04:12:00-0500,2026-04-24T00:00:00-05:00,2026-04-25T00:00:00-05:00,2026-04-24T05:00:00+00:00,2026-04-25T05:00:00+00:00,51
1201W,Booker T. Washington High School,FL,US,,,,America/Chicago,121.0,30.48424,-87.21184,249,64.5,2026-04-24T05:20:00-0500,2026-04-24T00:00:00-05:00,2026-04-25T00:00:00-05:00,2026-04-24T05:00:00+00:00,2026-04-25T05:00:00+00:00,34
CADL1,USCRN SITE AT UNIVERSITY OF LOUISIANA AT LAFAYETTE - CADE FARM NEAR LAFAYETTE 13SE,LA,US,,,,America/Chicago,35.0,30.09194,-91.87306,123,64.5,2026-04-24T02:10:00-0500,2026-04-24T00:00:00-05:00,2026-04-25T00:00:00-05:00,2026-04-24T05:00:00+00:00,2026-04-25T05:00:00+00:00,61
K0R4,Vidalia Concordia Parish,LA,US,,,,America/Chicago,54.0,31.5620,-91.5065,1,64.6,2026-04-24T03:35:00-0500,2026-04-24T00:00:00-05:00,2026-04-25T00:00:00-05:00,2026-04-24T05:00:00+00:00,2026-04-25T05:00:00+00:00,7
LM028,ULM_CLIN,LA,US,,,,America/Chicago,241.001,30.84559,-90.98049,313,64.7,2026-04-24T03:20:00-0500,2026-04-24T00:00:00-05:00,2026-04-25T00:00:00-05:00,2026-04-24T05:00:00+00:00,2026-04-25T05:00:00+00:00,67
LM019,ULM_MORG,LA,US,,,,America/Chicago,31.0007,30.72307,-91.53518,313,64.9,2026-04-24T01:45:00-0500,2026-04-24T00:00:00-05:00,2026-04-25T00:00:00-05:00,2026-04-24T05:00:00+00:00,2026-04-25T05:00:00+00:00,67
0325W,Woodlawn Beach Middle School,FL,US,,,,America/Chicago,43.0,30.39198,-87.00908,249,65.0,2026-04-24T05:40:00-0500,2026-04-24T00:00:00-05:00,2026-04-25T00:00:00-05:00,2026-04-24T05:00:00+00:00,2026-04-25T05:00:00+00:00,34
AS256,KF4IRC Mobile,AL,US,,,,America/Chicago,31.99,30.668,-88.1145,65,65.0,2026-04-24T04:20:00-0500,2026-04-24T00:00:00-05:00,2026-04-25T00:00:00-05:00,2026-04-24T05:00:00+00:00,2026-04-25T05:00:00+00:00,23
AW575,N4SZO-7 MOBILE,AL,US,,,,America/Chicago,135.01,30.63200,-88.17850,65,65.0,2026-04-24T03:06:00-0500,2026-04-24T00:00:00-05:00,2026-04-25T00:00:00-05:00,2026-04-24T05:00:00+00:00,2026-04-25T05:00:00+00:00,68
BBNL1,BIG BRANCH NWR,LA,US,,,,America/Chicago,11.0,30.321670,-89.935280,2,65.0,2026-04-24T00:47:00-0500,2026-04-24T00:00:00-05:00,2026-04-25T00:00:00-05:00,2026-04-24T05:00:00+00:00,2026-04-25T05:00:00+00:00,5
F1704,FW1704 Mandeville,LA,US,,,,America/Chicago,19.95,30.41800,-90.07300,65,65.0,2026-04-24T01:15:00-0500,2026-04-24T00:00:00-05:00,2026-04-25T00:00:00-05:00,2026-04-24T05:00:00+00:00,2026-04-25T05:00:00+00:00,70
F4455,FW4455 Prairieville,LA,US,,,,America/Chicago,22.28,30.28850,-90.97317,65,65.0,2026-04-24T03:01:00-0500,2026-04-24T00:00:00-05:00,2026-04-25T00:00:00-05:00,2026-04-24T05:00:00+00:00,2026-04-25T05:00:00+00:00,24
F7862,FW7862 Mandeville,LA,US,,,,America/Chicago,20.47,30.37933,-90.02150,65,65.0,2026-04-24T01:46:00-0500,2026-04-24T00:00:00-05:00,2026-04-25T00:00:00-05:00,2026-04-24T05:00:00+00:00,2026-04-25T05:00:00+00:00,69
SFPL1,FRITCHIE PORTABLE,LA,US,,,,America/Chicago,3.0,30.244170,-89.721390,2,65.0,2026-04-24T00:17:00-0500,2026-04-24T00:00:00-05:00,2026-04-25T00:00:00-05:00,2026-04-24T05:00:00+00:00,2026-04-25T05:00:00+00:00,6
UP272,ARMANT,LA,US,,,,America/Chicago,21.0,29.99830,-90.72166,64,65.0,2026-04-24T01:12:00-0500,2026-04-24T00:00:00-05:00,2026-04-25T00:00:00-05:00,2026-04-24T05:00:00+00:00,2026-04-25T05:00:00+00:00,6
UP866,DONVLE,LA,US,,,,America/Chicago,19.0,30.05690,-90.93188,64,65.0,2026-04-24T02:33:00-0500,2026-04-24T00:00:00-05:00,2026-04-25T00:00:00-05:00,2026-04-24T05:00:00+00:00,2026-04-25T05:00:00+00:00,13
UP878,MCCALL,LA,US,,,,America/Chicago,17.0,30.14032,-91.08864,64,65.0,2026-04-24T01:54:00-0500,2026-04-24T00:00:00-05:00,2026-04-25T00:00:00-05:00,2026-04-24T05:00:00+00:00,2026-04-25T05:00:00+00:00,12
UP884,SIMMS,LA,US,,,,America/Chicago,192.0,31.46255,-92.42326,64,65.0,2026-04-24T03:24:00-0500,2026-04-24T00:00:00-05:00,2026-04-25T00:00:00-05:00,2026-04-24T05:00:00+00:00,2026-04-25T05:00:00+00:00,6
UR391,WILGLN,LA,US,,,,America/Chicago,83.0,31.17714,-92.48389,64,65.0,2026-04-24T02:13:00-0500,2026-04-24T00:00:00-05:00,2026-04-25T00:00:00-05:00,2026-04-24T05:00:00+00:00,2026-04-25T05:00:00+00:00,11
UR772,MARIN2,LA,US,,,,America/Chicago,36.0,30.47829,-91.50878,64,65.0,2026-04-24T02:07:00-0500,2026-04-24T00:00:00-05:00,2026-04-25T00:00:00-05:00,2026-04-24T05:00:00+00:00,2026-04-25T05:00:00+00:00,12
LM026,ULM_VILP,LA,US,,,,America/Chicago,70.0,30.65821,-92.27666,313,65.2,2026-04-24T02:40:00-0500,2026-04-24T00:00:00-05:00,2026-04-25T00:00:00-05:00,2026-04-24T05:00:00+00:00,2026-04-25T05:00:00+00:00,67
KAPS,Port of South Louisiana Executive Regional Airport,LA,US,,,,America/Chicago,7.0,30.08747,-90.58283,1,65.3,2026-04-24T04:35:00-0500,2026-04-24T00:00:00-05:00,2026-04-25T00:00:00-05:00,2026-04-24T05:00:00+00:00,2026-04-25T05:00:00+00:00,7
1199W,Pensacola High School,FL,US,,,,America/Chicago,69.0,30.43479,-87.22465,249,65.4,2026-04-24T05:30:00-0500,2026-04-24T00:00:00-05:00,2026-04-25T00:00:00-05:00,2026-04-24T05:00:00+00:00,2026-04-25T05:00:00+00:00,34
LM008,ULM_JVIL,LA,US,,,,America/Chicago,51.9997,31.58849,-91.85472,313,65.5,2026-04-24T04:55:00-0500,2026-04-24T00:00:00-05:00,2026-04-25T00:00:00-05:00,2026-04-24T05:00:00+00:00,2026-04-25T05:00:00+00:00,67
LM025,ULM_CPOT,LA,US,,,,America/Chicago,43.9993,30.42204,-92.23156,313,65.5,2026-04-24T04:35:00-0500,2026-04-24T00:00:00-05:00,2026-04-25T00:00:00-05:00,2026-04-24T05:00:00+00:00,2026-04-25T05:00:00+00:00,68
LM012,ULM_JENA,LA,US,,,,America/Chicago,211.0,31.66897,-92.15916,313,65.6,2026-04-24T03:10:00-0500,2026-04-24T00:00:00-05:00,2026-04-25T00:00:00-05:00,2026-04-24T05:00:00+00:00,2026-04-25T05:00:00+00:00,68
LSU04,DeanLee,LA,US,,,,America/Chicago,72.0,31.17697,-92.40604,256,65.7,2026-04-24T02:57:00-0500,2026-04-24T00:00:00-05:00,2026-04-25T00:00:00-05:00,2026-04-24T05:00:00+00:00,2026-04-25T05:00:00+00:00,341
LSU11,StGabUSDACR6,LA,US,,,,America/Chicago,20.0,30.26630,-91.10629,256,65.9,2026-04-24T04:00:00-0500,2026-04-24T00:00:00-05:00,2026-04-25T00:00:00-05:00,2026-04-24T05:00:00+00:00,2026-04-25T05:00:00+00:00,340
AS718,N5PRN Jena,LA,US,,,,America/Chicago,209.0,31.70200,-92.11870,65,66.0,2026-04-24T02:57:00-0500,2026-04-24T00:00:00-05:00,2026-04-25T00:00:00-05:00,2026-04-24T05:00:00+00:00,2026-04-25T05:00:00+00:00,69
AV042,N5PA-2 Meadville,MS,US,,,,America/Chicago,310.07,31.58700,-90.89833,65,66.0,2026-04-24T01:45:00-0500,2026-04-24T00:00:00-05:00,2026-04-25T00:00:00-05:00,2026-04-24T05:00:00+00:00,2026-04-25T05:00:00+00:00,55
AX182,KD5VOO BATON ROUGE,LA,US,,,,America/Chicago,236.22,30.51533,-91.06350,65,66.0,2026-04-24T01:55:00-0500,2026-04-24T00:00:00-05:00,2026-04-25T00:00:00-05:00,2026-04-24T05:00:00+00:00,2026-04-25T05:00:00+00:00,68
BDEM6,BUDE,MS,US,,,,America/Chicago,447.0,31.410560,-90.846670,2,66.0,2026-04-24T01:05:00-0500,2026-04-24T00:00:00-05:00,2026-04-25T00:00:00-05:00,2026-04-24T05:00:00+00:00,2026-04-25T05:00:00+00:00,6
BENL1,CATAHOULA,LA,US,,,,America/Chicago,230.0,31.50211,-92.46131,2,66.0,2026-04-24T02:43:00-0500,2026-04-24T00:00:00-05:00,2026-04-25T00:00:00-05:00,2026-04-24T05:00:00+00:00,2026-04-25T05:00:00+00:00,6
C5600,KG5FQT Paulina,LA,US,,,,America/Chicago,6.0,30.03957,-90.71437,65,66.0,2026-04-24T02:30:00-0500,2026-04-24T00:00:00-05:00,2026-04-25T00:00:00-05:00,2026-04-24T05:00:00+00:00,2026-04-25T05:00:00+00:00,12
C6488,CW6488 Covington,LA,US,,,,America/Chicago,28.74,30.488,-90.14033,65,66.0,2026-04-24T02:00:00-0500,2026-04-24T00:00:00-05:00,2026-04-25T00:00:00-05:00,2026-04-24T05:00:00+00:00,2026-04-25T05:00:00+00:00,23
C7580,CW7580 Gramercy,LA,US,,,,America/Chicago,8.63,30.06333,-90.69917,65,66.0,2026-04-24T03:05:00-0500,2026-04-24T00:00:00-05:00,2026-04-25T00:00:00-05:00,2026-04-24T05:00:00+00:00,2026-04-25T05:00:00+00:00,70
D7066,DW7066 Pensacola,FL,US,,,,America/Chicago,108.27,30.46217,-87.19167,65,66.0,2026-04-24T03:48:00-0500,2026-04-24T00:00:00-05:00,2026-04-25T00:00:00-05:00,2026-04-24T05:00:00+00:00,2026-04-25T05:00:00+00:00,288
E0561,EW0561 Covington,LA,US,,,,America/Chicago,23.62,30.46750,-90.14100,65,66.0,2026-04-24T00:30:00-0500,2026-04-24T00:00:00-05:00,2026-04-25T00:00:00-05:00,2026-04-24T05:00:00+00:00,2026-04-25T05:00:00+00:00,24
F0338,FW0338 Plaucheville,LA,US,,,,America/Chicago,39.0,30.94383,-91.96533,65,66.0,2026-04-24T02:45:00-0500,2026-04-24T00:00:00-05:00,2026-04-25T00:00:00-05:00,2026-04-24T05:00:00+00:00,2026-04-25T05:00:00+00:00,69
F1193,FW1193 St. Gabriel,LA,US,,,,America/Chicago,16.0,30.30833,-91.101,65,66.0,2026-04-24T02:34:00-0500,2026-04-24T00:00:00-05:00,2026-04-25T00:00:00-05:00,2026-04-24T05:00:00+00:00,2026-04-25T05:00:00+00:00,68
F4663,FW4663 Thibodaux,LA,US,,,,America/Chicago,5.61,29.77467,-90.78567,65,66.0,2026-04-24T02:30:00-0500,2026-04-24T00:00:00-05:00,2026-04-25T00:00:00-05:00,2026-04-24T05:00:00+00:00,2026-04-25T05:00:00+00:00,24
F5486,FW5486 Carencro,LA,US,,,,America/Chicago,49.44,30.31517,-92.0225,65,66.0,2026-04-24T01:41:00-0500,2026-04-24T00:00:00-05:00,2026-04-25T00:00:00-05:00,2026-04-24T05:00:00+00:00,2026-04-25T05:00:00+00:00,68
F6181,FW6181 Mandeville,LA,US,,,,America/Chicago,16.44,30.38783,-90.06633,65,66.0,2026-04-24T00:00:00-0500,2026-04-24T00:00:00-05:00,2026-04-25T00:00:00-05:00,2026-04-24T05:00:00+00:00,2026-04-25T05:00:00+00:00,24
F9742,FW9742 Paulina,LA,US,,,,America/Chicago,10.01,30.03800,-90.74150,65,66.0,2026-04-24T01:42:00-0500,2026-04-24T00:00:00-05:00,2026-04-25T00:00:00-05:00,2026-04-24T05:00:00+00:00,2026-04-25T05:00:00+00:00,69
G2175,GW2175 SPANISH FORT,AL,US,,,,America/Chicago,108.27,30.66967,-87.91600,65,66.0,2026-04-24T03:50:00-0500,2026-04-24T00:00:00-05:00,2026-04-25T00:00:00-05:00,2026-04-24T05:00:00+00:00,2026-04-25T05:00:00+00:00,69
G5379,GW5379 GONZALES,LA,US,,,,America/Chicago,9.84,30.23233,-90.93133,65,66.0,2026-04-24T02:38:00-0500,2026-04-24T00:00:00-05:00,2026-04-25T00:00:00-05:00,2026-04-24T05:00:00+00:00,2026-04-25T05:00:00+00:00,69
G5906,GW5906 EDGARD,LA,US,,,,America/Chicago,24.41,30.04533,-90.56333,65,66.0,2026-04-24T05:25:00-0500,2026-04-24T00:00:00-05:00,2026-04-25T00:00:00-05:00,2026-04-24T05:00:00+00:00,2026-04-25T05:00:00+00:00,69
G6347,GW6347 SLIDELL,LA,US,,,,America/Chicago,16.4,30.29883,-89.75800,65,66.0,2026-04-24T00:15:00-0500,2026-04-24T00:00:00-05:00,2026-04-25T00:00:00-05:00,2026-04-24T05:00:00+00:00,2026-04-25T05:00:00+00:00,24
KHZR,New Roads False River Regional Airport,LA,US,,,,America/Chicago,39.0,30.7183,-91.4787,1,66.0,2026-04-24T01:55:00-0500,2026-04-24T00:00:00-05:00,2026-04-25T00:00:00-05:00,2026-04-24T05:00:00+00:00,2026-04-25T05:00:00+00:00,17
UP357,LULING,LA,US,,,,America/Chicago,17.0,29.93226,-90.36791,64,66.0,2026-04-24T02:59:00-0500,2026-04-24T00:00:00-05:00,2026-04-25T00:00:00-05:00,2026-04-24T05:00:00+00:00,2026-04-25T05:00:00+00:00,11
USA12,Gasque,AL,US,,,,America/Chicago,4.0,30.23870,-87.85400,3011,66.0,2026-04-24T05:26:00-0500,2026-04-24T00:00:00-05:00,2026-04-25T00:00:00-05:00,2026-04-24T05:00:00+00:00,2026-04-25T05:00:00+00:00,346
KJKA,Jack Edwards Airport,AL,US,,,,America/Chicago,16.0,30.28960,-87.67180,1,66.2,2026-04-24T03:55:00-0500,2026-04-24T00:00:00-05:00,2026-04-25T00:00:00-05:00,2026-04-24T05:00:00+00:00,2026-04-25T05:00:00+00:00,7
KOPL,Opelousas St Landry Parish Airport,LA,US,,,,America/Chicago,75.0,30.55840,-92.09940,1,66.4,2026-04-24T03:55:00-0500,2026-04-24T00:00:00-05:00,2026-04-25T00:00:00-05:00,2026-04-24T05:00:00+00:00,2026-04-25T05:00:00+00:00,6
LSU05,Iberia,LA,US,,,,America/Chicago,23.0,29.95985,-91.71488,256,66.4,2026-04-24T01:56:00-0500,2026-04-24T00:00:00-05:00,2026-04-25T00:00:00-05:00,2026-04-24T05:00:00+00:00,2026-04-25T05:00:00+00:00,341
LSU07,R&D Research,LA,US,,,,America/Chicago,36.0,30.61358,-91.97538,256,66.5,2026-04-24T02:53:00-0500,2026-04-24T00:00:00-05:00,2026-04-25T00:00:00-05:00,2026-04-24T05:00:00+00:00,2026-04-25T05:00:00+00:00,341
LM029,ULM_MARO,LA,US,,,,America/Chicago,5.0,29.8305,-90.11407,313,66.8,2026-04-24T04:15:00-0500,2026-04-24T00:00:00-05:00,2026-04-25T00:00:00-05:00,2026-04-24T05:00:00+00:00,2026-04-25T05:00:00+00:00,67
2161W,Erwinville Community Center,LA,US,,,,America/Chicago,72.0,30.54203,-91.36364,249,66.9,2026-04-24T03:50:00-0500,2026-04-24T00:00:00-05:00,2026-04-25T00:00:00-05:00,2026-04-24T05:00:00+00:00,2026-04-25T05:00:00+00:00,34
LSU01,BenHur,LA,US,,,,America/Chicago,20.0,30.36437,-91.16726,256,66.9,2026-04-24T04:58:00-0500,2026-04-24T00:00:00-05:00,2026-04-25T00:00:00-05:00,2026-04-24T05:00:00+00:00,2026-04-25T05:00:00+00:00,341
SSLYH,Davenport Bayou,FL,US,,,,America/Chicago,26.0,30.38129,-87.27328,248,66.9,2026-04-24T04:01:00-0500,2026-04-24T00:00:00-05:00,2026-04-25T00:00:00-05:00,2026-04-24T05:00:00+00:00,2026-04-25T05:00:00+00:00,51
AU112,KA5ZCI Laplace,LA,US,,,,America/Chicago,7.0,30.06017,-90.44817,65,67.0,2026-04-24T04:25:00-0500,2026-04-24T00:00:00-05:00,2026-04-25T00:00:00-05:00,2026-04-24T05:00:00+00:00,2026-04-25T05:00:00+00:00,57
BONA1,BONSECOUR,AL,US,,,,America/Chicago,20.0,30.252780,-87.8125,2,67.0,2026-04-24T04:50:00-0500,2026-04-24T00:00:00-05:00,2026-04-25T00:00:00-05:00,2026-04-24T05:00:00+00:00,2026-04-25T05:00:00+00:00,5
C2378,CW2378 New Orleans,LA,US,,,,America/Chicago,7.0,29.96883,-90.218,65,67.0,2026-04-24T04:40:00-0500,2026-04-24T00:00:00-05:00,2026-04-25T00:00:00-05:00,2026-04-24T05:00:00+00:00,2026-04-25T05:00:00+00:00,62
E6903,EW6903 Lockport,LA,US,,,,America/Chicago,5.08,29.66000,-90.54483,65,67.0,2026-04-24T05:00:00-0500,2026-04-24T00:00:00-05:00,2026-04-25T00:00:00-05:00,2026-04-24T05:00:00+00:00,2026-04-25T05:00:00+00:00,24
F5707,FW5707 Pineville,LA,US,,,,America/Chicago,104.99,31.37983,-92.46767,65,67.0,2026-04-24T02:45:00-0500,2026-04-24T00:00:00-05:00,2026-04-25T00:00:00-05:00,2026-04-24T05:00:00+00:00,2026-04-25T05:00:00+00:00,24
F7886,FW7886 BATON ROUGE,LA,US,,,,America/Chicago,22.8,30.33122,-91.12713,65,67.0,2026-04-24T01:29:00-0500,2026-04-24T00:00:00-05:00,2026-04-25T00:00:00-05:00,2026-04-24T05:00:00+00:00,2026-04-25T05:00:00+00:00,69
G1868,GW1868 VACHERIE,LA,US,,,,America/Chicago,10.17,29.93701,-90.69312,65,67.0,2026-04-24T01:59:00-0500,2026-04-24T00:00:00-05:00,2026-04-25T00:00:00-05:00,2026-04-24T05:00:00+00:00,2026-04-25T05:00:00+00:00,23
G5218,GW5218 SLIDELL,LA,US,,,,America/Chicago,78.08,30.27483,-89.75933,65,67.0,2026-04-24T00:00:00-0500,2026-04-24T00:00:00-05:00,2026-04-25T00:00:00-05:00,2026-04-24T05:00:00+00:00,2026-04-25T05:00:00+00:00,24
G5294,GW5294 BATON ROUGE,LA,US,,,,America/Chicago,19.68,30.36583,-91.04050,65,67.0,2026-04-24T02:06:00-0500,2026-04-24T00:00:00-05:00,2026-04-25T00:00:00-05:00,2026-04-24T05:00:00+00:00,2026-04-25T05:00:00+00:00,68
G6345,GW6345 MADISONVILLE,LA,US,,,,America/Chicago,6.56,30.41250,-90.17050,65,67.0,2026-04-24T05:00:00-0500,2026-04-24T00:00:00-05:00,2026-04-25T00:00:00-05:00,2026-04-24T05:00:00+00:00,2026-04-25T05:00:00+00:00,24
UP368,MEEKER,LA,US,,,,America/Chicago,70.0,31.11893,-92.40583,64,67.0,2026-04-24T01:57:00-0500,2026-04-24T00:00:00-05:00,2026-04-25T00:00:00-05:00,2026-04-24T05:00:00+00:00,2026-04-25T05:00:00+00:00,14
UP860,BUNKIE,LA,US,,,,America/Chicago,52.0,30.88467,-92.12814,64,67.0,2026-04-24T03:22:00-0500,2026-04-24T00:00:00-05:00,2026-04-25T00:00:00-05:00,2026-04-24T05:00:00+00:00,2026-04-25T05:00:00+00:00,15
UP867,EDGARD,LA,US,,,,America/Chicago,12.0,30.01931,-90.54671,64,67.0,2026-04-24T03:24:00-0500,2026-04-24T00:00:00-05:00,2026-04-25T00:00:00-05:00,2026-04-24T05:00:00+00:00,2026-04-25T05:00:00+00:00,3
1884W,St. Charles Parish EOC,LA,US,,,,America/Chicago,30.0,29.96418,-90.40399,249,67.2,2026-04-24T05:40:00-0500,2026-04-24T00:00:00-05:00,2026-04-25T00:00:00-05:00,2026-04-24T05:00:00+00:00,2026-04-25T05:00:00+00:00,34
2016W,Killona Volunteer Fire Department,LA,US,,,,America/Chicago,92.0,30.00142,-90.48636,249,67.2,2026-04-24T05:40:00-0500,2026-04-24T00:00:00-05:00,2026-04-25T00:00:00-05:00,2026-04-24T05:00:00+00:00,2026-04-25T05:00:00+00:00,34
2158W,Brusly Police Department,LA,US,,,,America/Chicago,82.0,30.38593,-91.24429,249,67.5,2026-04-24T03:30:00-0500,2026-04-24T00:00:00-05:00,2026-04-25T00:00:00-05:00,2026-04-24T05:00:00+00:00,2026-04-25T05:00:00+00:00,34
KIYA,Abbeville Chris Crusta Memorial Airport,LA,US,,,,America/Chicago,16.0,29.97578,-92.08422,1,67.5,2026-04-24T04:55:00-0500,2026-04-24T00:00:00-05:00,2026-04-25T00:00:00-05:00,2026-04-24T05:00:00+00:00,2026-04-25T05:00:00+00:00,17
NGC11,WxRod,LA,US,,,,America/Chicago,2.1,29.96887,-90.21775,295,67.6,2026-04-24T05:15:00-0500,2026-04-24T00:00:00-05:00,2026-04-25T00:00:00-05:00,2026-04-24T05:00:00+00:00,2026-04-25T05:00:00+00:00,22
AT845,K0CPM-2 KATY,LA,US,,,,America/Chicago,124.67,29.96450,-90.14627,65,68.0,2026-04-24T02:15:00-0500,2026-04-24T00:00:00-05:00,2026-04-25T00:00:00-05:00,2026-04-24T05:00:00+00:00,2026-04-25T05:00:00+00:00,20
AV521,W5IC East Baton Rouge Parish      LA US,LA,US,,,,America/Chicago,27.62,30.40400,-91.08467,65,68.0,2026-04-24T02:09:00-0500,2026-04-24T00:00:00-05:00,2026-04-25T00:00:00-05:00,2026-04-24T05:00:00+00:00,2026-04-25T05:00:00+00:00,65
D6888,DW6888 Gretna,LA,US,,,,America/Chicago,-2.49,29.87467,-90.03783,65,68.0,2026-04-24T04:33:00-0500,2026-04-24T00:00:00-05:00,2026-04-25T00:00:00-05:00,2026-04-24T05:00:00+00:00,2026-04-25T05:00:00+00:00,61
E1043,EW1043 Lutcher,LA,US,,,,America/Chicago,10.56,30.05633,-90.69917,65,68.0,2026-04-24T01:30:00-0500,2026-04-24T00:00:00-05:00,2026-04-25T00:00:00-05:00,2026-04-24T05:00:00+00:00,2026-04-25T05:00:00+00:00,24
E4624,EW4624 Pensacola,FL,US,,,,America/Chicago,4.0,30.30633,-87.42333,65,68.0,2026-04-24T05:15:00-0500,2026-04-24T00:00:00-05:00,2026-04-25T00:00:00-05:00,2026-04-24T05:00:00+00:00,2026-04-25T05:00:00+00:00,24
F5866,FW5866 Duson,LA,US,,,,America/Chicago,24.9,30.16483,-92.12017,65,68.0,2026-04-24T00:30:00-0500,2026-04-24T00:00:00-05:00,2026-04-25T00:00:00-05:00,2026-04-24T05:00:00+00:00,2026-04-25T05:00:00+00:00,24
F8402,FW8402 Youngsville,LA,US,,,,America/Chicago,25.39,30.11383,-92.01083,65,68.0,2026-04-24T01:40:00-0500,2026-04-24T00:00:00-05:00,2026-04-25T00:00:00-05:00,2026-04-24T05:00:00+00:00,2026-04-25T05:00:00+00:00,68
G6440,GW6440 LACOMBE,LA,US,,,,America/Chicago,91.86,30.31150,-89.93917,65,68.0,2026-04-24T00:00:00-0500,2026-04-24T00:00:00-05:00,2026-04-25T00:00:00-05:00,2026-04-24T05:00:00+00:00,2026-04-25T05:00:00+00:00,24
KPTN,Patterson Memorial,LA,US,,,,America/Chicago,10.0,29.71667,-91.33333,1,68.0,2026-04-24T01:35:00-0500,2026-04-24T00:00:00-05:00,2026-04-25T00:00:00-05:00,2026-04-24T05:00:00+00:00,2026-04-25T05:00:00+00:00,78
1313W,Alex Box Stadium,LA,US,,,,America/Chicago,36.0,30.40666,-91.18750,249,68.1,2026-04-24T05:10:00-0500,2026-04-24T00:00:00-05:00,2026-04-25T00:00:00-05:00,2026-04-24T05:00:00+00:00,2026-04-25T05:00:00+00:00,34
CEPM6,Pascagoula,MS,US,,,,America/Chicago,9.0,30.35970,-88.52120,3011,68.1,2026-04-24T05:41:00-0500,2026-04-24T00:00:00-05:00,2026-04-25T00:00:00-05:00,2026-04-24T05:00:00+00:00,2026-04-25T05:00:00+00:00,347
2162W,Homeland Security & 911 Center,LA,US,,,,America/Chicago,148.0,30.43095,-91.20390,249,68.2,2026-04-24T05:30:00-0500,2026-04-24T00:00:00-05:00,2026-04-25T00:00:00-05:00,2026-04-24T05:00:00+00:00,2026-04-25T05:00:00+00:00,34
2020W,Willowridge Pump Station Luling,LA,US,,,,America/Chicago,82.0,29.88464,-90.34422,249,68.4,2026-04-24T03:20:00-0500,2026-04-24T00:00:00-05:00,2026-04-25T00:00:00-05:00,2026-04-24T05:00:00+00:00,2026-04-25T05:00:00+00:00,34
LSU03,Crowley,LA,US,,,,America/Chicago,23.0,30.24761,-92.34761,256,68.5,2026-04-24T03:19:00-0500,2026-04-24T00:00:00-05:00,2026-04-25T00:00:00-05:00,2026-04-24T05:00:00+00:00,2026-04-25T05:00:00+00:00,341
PILL1,Pilottown,LA,US,,,,America/Chicago,3.0,29.17830,-89.25830,121,68.5,2026-04-24T05:24:00-0500,2026-04-24T00:00:00-05:00,2026-04-25T00:00:00-05:00,2026-04-24T05:00:00+00:00,2026-04-25T05:00:00+00:00,56
2156W,Addis VFW Hall,LA,US,,,,America/Chicago,52.0,30.35007,-91.26724,249,68.6,2026-04-24T05:30:00-0500,2026-04-24T00:00:00-05:00,2026-04-25T00:00:00-05:00,2026-04-24T05:00:00+00:00,2026-04-25T05:00:00+00:00,34
2281W,NORDC Norman Playground - Old Aurora,LA,US,,,,America/Chicago,33.0,29.91992,-89.99820,249,68.6,2026-04-24T05:40:00-0500,2026-04-24T00:00:00-05:00,2026-04-25T00:00:00-05:00,2026-04-24T05:00:00+00:00,2026-04-25T05:00:00+00:00,34
0327W,Gulf Breeze High School,FL,US,,,,America/Chicago,26.0,30.35847,-87.16718,249,68.7,2026-04-24T05:40:00-0500,2026-04-24T00:00:00-05:00,2026-04-25T00:00:00-05:00,2026-04-24T05:00:00+00:00,2026-04-25T05:00:00+00:00,34
1311W,Tiger Stadium,LA,US,,,,America/Chicago,52.0,30.41192,-91.18376,249,68.7,2026-04-24T03:40:00-0500,2026-04-24T00:00:00-05:00,2026-04-25T00:00:00-05:00,2026-04-24T05:00:00+00:00,2026-04-25T05:00:00+00:00,34
NDBCPILL1,"8760721 - Pilottown, LA",LA,US,,,,America/Chicago,7.55,29.179,-89.259,286,68.7,2026-04-24T02:54:00-0500,2026-04-24T00:00:00-05:00,2026-04-25T00:00:00-05:00,2026-04-24T05:00:00+00:00,2026-04-25T05:00:00+00:00,19
AX220,KI5MVM METAIRIE,LA,US,,,,America/Chicago,3.28,30.02833,-90.21383,65,69.0,2026-04-24T05:36:00-0500,2026-04-24T00:00:00-05:00,2026-04-25T00:00:00-05:00,2026-04-24T05:00:00+00:00,2026-04-25T05:00:00+00:00,70
C4185,CW4185 New Orleans,LA,US,,,,America/Chicago,4.69,29.95,-90.19917,65,69.0,2026-04-24T03:26:00-0500,2026-04-24T00:00:00-05:00,2026-04-25T00:00:00-05:00,2026-04-24T05:00:00+00:00,2026-04-25T05:00:00+00:00,69
COOPJNEL1,JONESVILLE LOCKS,LA,US,,,,America/Chicago,70.0,31.4825,-91.8627,74,69.0,2026-04-24T04:00:00-0500,2026-04-24T00:00:00-05:00,2026-04-25T00:00:00-05:00,2026-04-24T05:00:00+00:00,2026-04-25T05:00:00+00:00,1
E6361,EW6361 Orange Beach,AL,US,,,,America/Chicago,1.05,30.304,-87.476,65,69.0,2026-04-24T04:30:00-0500,2026-04-24T00:00:00-05:00,2026-04-25T00:00:00-05:00,2026-04-24T05:00:00+00:00,2026-04-25T05:00:00+00:00,19
F0094,FW0094 Slidell,LA,US,,,,America/Chicago,11.32,30.28167,-89.773,65,69.0,2026-04-24T00:01:00-0500,2026-04-24T00:00:00-05:00,2026-04-25T00:00:00-05:00,2026-04-24T05:00:00+00:00,2026-04-25T05:00:00+00:00,70
F1110,FW1110 Kenner,LA,US,,,,America/Chicago,-4.4,30.02850,-90.22450,65,69.0,2026-04-24T05:30:00-0500,2026-04-24T00:00:00-05:00,2026-04-25T00:00:00-05:00,2026-04-24T05:00:00+00:00,2026-04-25T05:00:00+00:00,24
F1622,FW1622 New Orleans,LA,US,,,,America/Chicago,6.1,29.9435,-90.06983,65,69.0,2026-04-24T03:42:00-0500,2026-04-24T00:00:00-05:00,2026-04-25T00:00:00-05:00,2026-04-24T05:00:00+00:00,2026-04-25T05:00:00+00:00,35
F3872,FW3872 Orange Beach,AL,US,,,,America/Chicago,15.81,30.28450,-87.58183,65,69.0,2026-04-24T05:30:00-0500,2026-04-24T00:00:00-05:00,2026-04-25T00:00:00-05:00,2026-04-24T05:00:00+00:00,2026-04-25T05:00:00+00:00,70
F6464,FW6464 Long Beach,MS,US,,,,America/Chicago,22.97,30.36467,-89.18633,65,69.0,2026-04-24T00:30:00-0500,2026-04-24T00:00:00-05:00,2026-04-25T00:00:00-05:00,2026-04-24T05:00:00+00:00,2026-04-25T05:00:00+00:00,24
G0610,GW0610 Metairie,LA,US,,,,America/Chicago,-1.44,29.98450,-90.13883,65,69.0,2026-04-24T04:46:00-0500,2026-04-24T00:00:00-05:00,2026-04-25T00:00:00-05:00,2026-04-24T05:00:00+00:00,2026-04-25T05:00:00+00:00,70
G0933,GW0933 Pensacola,FL,US,,,,America/Chicago,16.4,30.26633,-87.26533,65,69.0,2026-04-24T04:01:00-0500,2026-04-24T00:00:00-05:00,2026-04-25T00:00:00-05:00,2026-04-24T05:00:00+00:00,2026-04-25T05:00:00+00:00,88
G2074,GW2074 CONVENT,LA,US,,,,America/Chicago,22.97,30.06967,-90.86883,65,69.0,2026-04-24T02:16:00-0500,2026-04-24T00:00:00-05:00,2026-04-25T00:00:00-05:00,2026-04-24T05:00:00+00:00,2026-04-25T05:00:00+00:00,16
G2193,GW2193 GULF SHORES,AL,US,,,,America/Chicago,26.25,30.26933,-87.67700,65,69.0,2026-04-24T05:31:00-0500,2026-04-24T00:00:00-05:00,2026-04-25T00:00:00-05:00,2026-04-24T05:00:00+00:00,2026-04-25T05:00:00+00:00,24
PTBM6,Petit Bois Is,MS,US,,,,America/Chicago,0.0,30.21330,-88.50000,121,69.0,2026-04-24T05:12:00-0500,2026-04-24T00:00:00-05:00,2026-04-25T00:00:00-05:00,2026-04-24T05:00:00+00:00,2026-04-25T05:00:00+00:00,55
UP883,ROSA,LA,US,,,,America/Chicago,45.0,30.75410,-92.00578,64,69.0,2026-04-24T00:44:00-0500,2026-04-24T00:00:00-05:00,2026-04-25T00:00:00-05:00,2026-04-24T05:00:00+00:00,2026-04-25T05:00:00+00:00,8
1873W,NORDC Morris F.X. Jeff - Sr. Park - Algiers,LA,US,,,,America/Chicago,13.0,29.94202,-90.02991,249,69.1,2026-04-24T05:00:00-0500,2026-04-24T00:00:00-05:00,2026-04-25T00:00:00-05:00,2026-04-24T05:00:00+00:00,2026-04-25T05:00:00+00:00,34
1878W,NOPD Stables - City Park,LA,US,,,,America/Chicago,10.0,30.00485,-90.09718,249,69.1,2026-04-24T05:30:00-0500,2026-04-24T00:00:00-05:00,2026-04-25T00:00:00-05:00,2026-04-24T05:00:00+00:00,2026-04-25T05:00:00+00:00,34
KBFM,"Mobile, Mobile Downtown Airport",AL,US,,,,America/Chicago,23.0,30.61389,-88.06333,1,69.1,2026-04-24T01:14:00-0500,2026-04-24T00:00:00-05:00,2026-04-25T00:00:00-05:00,2026-04-24T05:00:00+00:00,2026-04-25T05:00:00+00:00,82
KNBG,New Orleans Naval Air Station - Alvin Callender Field,LA,US,,,,America/Chicago,0.0,29.83736,-90.02445,1,69.1,2026-04-24T03:55:00-0500,2026-04-24T00:00:00-05:00,2026-04-25T00:00:00-05:00,2026-04-24T05:00:00+00:00,2026-04-25T05:00:00+00:00,5
1970W,Port NOLA Administration - Warehouse District/Riverwalk,LA,US,,,,America/Chicago,30.0,29.93710,-90.06144,249,69.2,2026-04-24T05:30:00-0500,2026-04-24T00:00:00-05:00,2026-04-25T00:00:00-05:00,2026-04-24T05:00:00+00:00,2026-04-25T05:00:00+00:00,34
1819W,Loyola University New Orleans - Uptown/Audubon,LA,US,,,,America/Chicago,30.0,29.93707,-90.11992,249,69.4,2026-04-24T05:30:00-0500,2026-04-24T00:00:00-05:00,2026-04-25T00:00:00-05:00,2026-04-24T05:00:00+00:00,2026-04-25T05:00:00+00:00,34
1972W,Harbor Police Headquarters - Irish Channel,LA,US,,,,America/Chicago,13.0,29.92063,-90.07651,249,69.4,2026-04-24T05:10:00-0500,2026-04-24T00:00:00-05:00,2026-04-25T00:00:00-05:00,2026-04-24T05:00:00+00:00,2026-04-25T05:00:00+00:00,34
2166W,Port Allen,LA,US,,,,America/Chicago,49.0,30.49915,-91.21744,249,69.4,2026-04-24T05:30:00-0500,2026-04-24T00:00:00-05:00,2026-04-25T00:00:00-05:00,2026-04-24T05:00:00+00:00,2026-04-25T05:00:00+00:00,34
NWCL1,New Canal Station,LA,US,,,,America/Chicago,7.0,30.02717,-90.11342,122,69.6,2026-04-24T05:24:00-0500,2026-04-24T00:00:00-05:00,2026-04-25T00:00:00-05:00,2026-04-24T05:00:00+00:00,2026-04-25T05:00:00+00:00,56
1871W,NOFD Engine 36 - New Orleans East,LA,US,,,,America/Chicago,10.0,30.02735,-89.96878,249,69.7,2026-04-24T05:30:00-0500,2026-04-24T00:00:00-05:00,2026-04-25T00:00:00-05:00,2026-04-24T05:00:00+00:00,2026-04-25T05:00:00+00:00,34
LM030,ULM_CHAL,LA,US,,,,America/Chicago,6.0007,29.97033,-89.95386,313,69.7,2026-04-24T00:40:00-0500,2026-04-24T00:00:00-05:00,2026-04-25T00:00:00-05:00,2026-04-24T05:00:00+00:00,2026-04-25T05:00:00+00:00,68
1875W,NOFD Engine 27 - Seventh Ward/St.Roch,LA,US,,,,America/Chicago,7.0,29.97951,-90.05844,249,69.8,2026-04-24T05:00:00-0500,2026-04-24T00:00:00-05:00,2026-04-25T00:00:00-05:00,2026-04-24T05:00:00+00:00,2026-04-25T05:00:00+00:00,34
1890W,Municipal Yacht Harbor - Lakefront,LA,US,,,,America/Chicago,3.0,30.02836,-90.11563,249,69.8,2026-04-24T05:30:00-0500,2026-04-24T00:00:00-05:00,2026-04-25T00:00:00-05:00,2026-04-24T05:00:00+00:00,2026-04-25T05:00:00+00:00,34
KMSY,"New Orleans, New Orleans International Airport",LA,US,,,,America/Chicago,3.0,29.99278,-90.25083,1,69.8,2026-04-24T01:05:00-0500,2026-04-24T00:00:00-05:00,2026-04-25T00:00:00-05:00,2026-04-24T05:00:00+00:00,2026-04-25T05:00:00+00:00,75
KNEW,"New Orleans, New Orleans Lakefront Airport",LA,US,,,,America/Chicago,7.0,30.04944,-90.02889,1,69.8,2026-04-24T00:55:00-0500,2026-04-24T00:00:00-05:00,2026-04-25T00:00:00-05:00,2026-04-24T05:00:00+00:00,2026-04-25T05:00:00+00:00,74
1697W,FSWN Escambia Pensacola Beach,FL,US,,,,America/Chicago,10.0,30.33823,-87.11521,249,69.9,2026-04-24T05:20:00-0500,2026-04-24T00:00:00-05:00,2026-04-25T00:00:00-05:00,2026-04-24T05:00:00+00:00,2026-04-25T05:00:00+00:00,34
1822W,SWBNO Pumping Station - Little Woods,LA,US,,,,America/Chicago,10.0,30.05864,-89.96675,249,69.9,2026-04-24T05:40:00-0500,2026-04-24T00:00:00-05:00,2026-04-25T00:00:00-05:00,2026-04-24T05:00:00+00:00,2026-04-25T05:00:00+00:00,34
1826W,SWBNO East Bank Water Intake- Carrollton Bend,LA,US,,,,America/Chicago,10.0,29.95499,-90.13982,249,69.9,2026-04-24T05:40:00-0500,2026-04-24T00:00:00-05:00,2026-04-25T00:00:00-05:00,2026-04-24T05:00:00+00:00,2026-04-25T05:00:00+00:00,34
AV683,KG5WBN New Orleans,LA,US,,,,America/Chicago,6.56,29.95400,-90.12617,65,70.0,2026-04-24T04:56:00-0500,2026-04-24T00:00:00-05:00,2026-04-25T00:00:00-05:00,2026-04-24T05:00:00+00:00,2026-04-25T05:00:00+00:00,68
BYGL1,West Bank 1,LA,US,,,,America/Chicago,3.0,29.78856,-90.42020,122,70.0,2026-04-24T05:06:00-0500,2026-04-24T00:00:00-05:00,2026-04-25T00:00:00-05:00,2026-04-24T05:00:00+00:00,2026-04-25T05:00:00+00:00,56
C2220,CW2220 Kaplan,LA,US,,,,America/Chicago,16.4,30.00720,-92.29422,65,70.0,2026-04-24T00:00:00-0500,2026-04-24T00:00:00-05:00,2026-04-25T00:00:00-05:00,2026-04-24T05:00:00+00:00,2026-04-25T05:00:00+00:00,24
D9919,DW9919 Gulf Shores,AL,US,,,,America/Chicago,11.02,30.28783,-87.51133,65,70.0,2026-04-24T04:45:00-0500,2026-04-24T00:00:00-05:00,2026-04-25T00:00:00-05:00,2026-04-24T05:00:00+00:00,2026-04-25T05:00:00+00:00,20
E1090,EW1090 Metairie,LA,US,,,,America/Chicago,-0.66,30.00500,-90.14217,65,70.0,2026-04-24T04:53:00-0500,2026-04-24T00:00:00-05:00,2026-04-25T00:00:00-05:00,2026-04-24T05:00:00+00:00,2026-04-25T05:00:00+00:00,68
E3364,EW3364 Belle Chasse,LA,US,,,,America/Chicago,-0.53,29.85967,-89.99183,65,70.0,2026-04-24T02:45:00-0500,2026-04-24T00:00:00-05:00,2026-04-25T00:00:00-05:00,2026-04-24T05:00:00+00:00,2026-04-25T05:00:00+00:00,25
E8473,EW8473 Gretna,LA,US,,,,America/Chicago,-1.84,29.90750,-90.04883,65,70.0,2026-04-24T03:55:00-0500,2026-04-24T00:00:00-05:00,2026-04-25T00:00:00-05:00,2026-04-24T05:00:00+00:00,2026-04-25T05:00:00+00:00,70
E9083,W4NDF-13 METAIRIE,LA,US,,,,America/Chicago,9.0,29.98114,-90.19902,65,70.0,2026-04-24T02:27:00-0500,2026-04-24T00:00:00-05:00,2026-04-25T00:00:00-05:00,2026-04-24T05:00:00+00:00,2026-04-25T05:00:00+00:00,69
G0489,GW0489 Pensacola,FL,US,,,,America/Chicago,9.0,30.31467,-87.47833,65,70.0,2026-04-24T03:45:00-0500,2026-04-24T00:00:00-05:00,2026-04-25T00:00:00-05:00,2026-04-24T05:00:00+00:00,2026-04-25T05:00:00+00:00,24
G4801,GW4801 METAIRIE,LA,US,,,,America/Chicago,0.0,29.98333,-90.21667,65,70.0,2026-04-24T02:47:00-0500,2026-04-24T00:00:00-05:00,2026-04-25T00:00:00-05:00,2026-04-24T05:00:00+00:00,2026-04-25T05:00:00+00:00,66
NDBCNWCL1,"8761927 - New Canal Station, LA",,,,,,America/Chicago,5.58,30.027,-90.113,286,70.0,2026-04-24T03:54:00-0500,2026-04-24T00:00:00-05:00,2026-04-25T00:00:00-05:00,2026-04-24T05:00:00+00:00,2026-04-25T05:00:00+00:00,19
NTC8737048,Mobile State Docks,AL,US,,,,America/Chicago,4.0,30.70461,-88.03961,278,70.0,2026-04-24T03:06:00-0500,2026-04-24T00:00:00-05:00,2026-04-25T00:00:00-05:00,2026-04-24T05:00:00+00:00,2026-04-25T05:00:00+00:00,56
OBLA1,Mobile State Docks,AL,US,,,,America/Chicago,20.0,30.70830,-88.04330,122,70.0,2026-04-24T02:30:00-0500,2026-04-24T00:00:00-05:00,2026-04-25T00:00:00-05:00,2026-04-24T05:00:00+00:00,2026-04-25T05:00:00+00:00,54
PCLF1,Pensacola,FL,US,,,,America/Chicago,13.0,30.40440,-87.21120,122,70.0,2026-04-24T05:18:00-0500,2026-04-24T00:00:00-05:00,2026-04-25T00:00:00-05:00,2026-04-24T05:00:00+00:00,2026-04-25T05:00:00+00:00,56
TESL1,Berwick,LA,US,,,,America/Chicago,10.0,29.66750,-91.23761,122,70.0,2026-04-24T00:54:00-0500,2026-04-24T00:00:00-05:00,2026-04-25T00:00:00-05:00,2026-04-24T05:00:00+00:00,2026-04-25T05:00:00+00:00,56
TS947,SELA PORTABLE,LA,US,,,,America/Chicago,3.0,30.109000,-89.857830,2,70.0,2026-04-24T02:34:00-0500,2026-04-24T00:00:00-05:00,2026-04-25T00:00:00-05:00,2026-04-24T05:00:00+00:00,2026-04-25T05:00:00+00:00,6
UP213,PBARRE,LA,US,,,,America/Chicago,37.0,30.54235,-91.98984,64,70.0,2026-04-24T01:59:00-0500,2026-04-24T00:00:00-05:00,2026-04-25T00:00:00-05:00,2026-04-24T05:00:00+00:00,2026-04-25T05:00:00+00:00,3
1885W,NOFD Rescue Squad 7 - Treme,LA,US,,,,America/Chicago,10.0,29.96268,-90.07154,249,70.1,2026-04-24T05:30:00-0500,2026-04-24T00:00:00-05:00,2026-04-25T00:00:00-05:00,2026-04-24T05:00:00+00:00,2026-04-25T05:00:00+00:00,34
GCBSPA1,"BSPA - Battleship Park, AL",AL,US,,,,America/Chicago,0.0,30.6826,-88.0122,315,70.1,2026-04-24T03:00:00-0500,2026-04-24T00:00:00-05:00,2026-04-25T00:00:00-05:00,2026-04-24T05:00:00+00:00,2026-04-25T05:00:00+00:00,6
2242W,NOFD Engine 4 - Pines Village,LA,US,,,,America/Chicago,33.0,30.02271,-90.02339,249,70.2,2026-04-24T05:30:00-0500,2026-04-24T00:00:00-05:00,2026-04-25T00:00:00-05:00,2026-04-24T05:00:00+00:00,2026-04-25T05:00:00+00:00,34
NDBCOBLA1,"8737048 - Mobile State Docks, AL",AL,US,,,,America/Chicago,9.84,30.705,-88.04,286,70.2,2026-04-24T02:54:00-0500,2026-04-24T00:00:00-05:00,2026-04-25T00:00:00-05:00,2026-04-24T05:00:00+00:00,2026-04-25T05:00:00+00:00,19
NDBCPTBM6,"8741003 - Petit Bois Island, Port of Pascagoula, MS",,,,,,America/Chicago,,30.213,-88.505,286,70.2,2026-04-24T01:00:00-0500,2026-04-24T00:00:00-05:00,2026-04-25T00:00:00-05:00,2026-04-24T05:00:00+00:00,2026-04-25T05:00:00+00:00,19
NDBCTESL1,"8764044 - Tesoro Marine Terminal, Berwick, Atchafalaya River, LA",LA,US,,,,America/Chicago,0.0,29.668,-91.237,286,70.2,2026-04-24T00:24:00-0500,2026-04-24T00:00:00-05:00,2026-04-25T00:00:00-05:00,2026-04-24T05:00:00+00:00,2026-04-25T05:00:00+00:00,19
1968W,Port NOLA Maintenance- Uptown/West Riverside,LA,US,,,,America/Chicago,20.0,29.91441,-90.11443,249,70.3,2026-04-24T04:50:00-0500,2026-04-24T00:00:00-05:00,2026-04-25T00:00:00-05:00,2026-04-24T05:00:00+00:00,2026-04-25T05:00:00+00:00,34
1975W,NOFD Engine 12 - Gentilly/Milneburg,LA,US,,,,America/Chicago,7.0,30.01622,-90.05172,249,70.3,2026-04-24T04:30:00-0500,2026-04-24T00:00:00-05:00,2026-04-25T00:00:00-05:00,2026-04-24T05:00:00+00:00,2026-04-25T05:00:00+00:00,34
1815W,New Orleans City Hall - Central Business District,LA,US,,,,America/Chicago,39.0,29.95203,-90.07713,249,70.5,2026-04-24T04:50:00-0500,2026-04-24T00:00:00-05:00,2026-04-25T00:00:00-05:00,2026-04-24T05:00:00+00:00,2026-04-25T05:00:00+00:00,34
NDBCMCGA1,"8736897 - Coast Guard Sector Mobile, AL",AL,US,,,,America/Chicago,7.22,30.649,-88.058,286,70.5,2026-04-24T03:54:00-0500,2026-04-24T00:00:00-05:00,2026-04-25T00:00:00-05:00,2026-04-24T05:00:00+00:00,2026-04-25T05:00:00+00:00,19
SHBL1,Shell Beach,LA,US,,,,America/Chicago,0.0,29.86811,-89.67325,122,70.5,2026-04-24T04:48:00-0500,2026-04-24T00:00:00-05:00,2026-04-25T00:00:00-05:00,2026-04-24T05:00:00+00:00,2026-04-25T05:00:00+00:00,56
1896W,FSWN Escambia Perdido Key,FL,US,,,,America/Chicago,3.0,30.29158,-87.46896,249,70.6,2026-04-24T05:20:00-0500,2026-04-24T00:00:00-05:00,2026-04-25T00:00:00-05:00,2026-04-24T05:00:00+00:00,2026-04-25T05:00:00+00:00,34
NORL1,MISSISSIPPI RIVER AT CARROLLTON GAGE AT NEW ORLEANS,LA,US,,,,America/Chicago,20.0,29.93472,-90.13611,106,70.6,2026-04-24T04:00:00-0500,2026-04-24T00:00:00-05:00,2026-04-25T00:00:00-05:00,2026-04-24T05:00:00+00:00,2026-04-25T05:00:00+00:00,5
1824W,SWBNO West Bank Water Treatment - English Turn,LA,US,,,,America/Chicago,10.0,29.90704,-89.96619,249,70.7,2026-04-24T03:10:00-0500,2026-04-24T00:00:00-05:00,2026-04-25T00:00:00-05:00,2026-04-24T05:00:00+00:00,2026-04-25T05:00:00+00:00,20
NDBCSHBL1,"8761305 - Shell Beach, LA",LA,US,,,,America/Chicago,0.0,29.868,-89.673,286,70.7,2026-04-24T04:24:00-0500,2026-04-24T00:00:00-05:00,2026-04-25T00:00:00-05:00,2026-04-24T05:00:00+00:00,2026-04-25T05:00:00+00:00,19
2245W,City Equipment Maintenance - Desire,LA,US,,,,America/Chicago,33.0,29.99992,-90.03133,249,70.8,2026-04-24T03:30:00-0500,2026-04-24T00:00:00-05:00,2026-04-25T00:00:00-05:00,2026-04-24T05:00:00+00:00,2026-04-25T05:00:00+00:00,34
1887W,NOFD Logistics - Navarre,LA,US,,,,America/Chicago,10.0,29.98489,-90.10899,249,70.9,2026-04-24T05:40:00-0500,2026-04-24T00:00:00-05:00,2026-04-25T00:00:00-05:00,2026-04-24T05:00:00+00:00,2026-04-25T05:00:00+00:00,34
MCGA1,Coast Guard Sector Mobile,AL,US,,,,America/Chicago,13.0,30.64830,-88.05830,121,70.9,2026-04-24T04:48:00-0500,2026-04-24T00:00:00-05:00,2026-04-25T00:00:00-05:00,2026-04-24T05:00:00+00:00,2026-04-25T05:00:00+00:00,56
NDBCBYGL1,"8762482 - West Bank 1, Bayou Gauche, LA",LA,US,,,,America/Chicago,0.0,29.789,-90.42,286,70.9,2026-04-24T02:00:00-0500,2026-04-24T00:00:00-05:00,2026-04-25T00:00:00-05:00,2026-04-24T05:00:00+00:00,2026-04-25T05:00:00+00:00,19
NDBCPCLF1,"8729840 - Pensacola, FL",FL,US,,,,America/Chicago,9.19,30.404,-87.211,286,70.9,2026-04-24T04:24:00-0500,2026-04-24T00:00:00-05:00,2026-04-25T00:00:00-05:00,2026-04-24T05:00:00+00:00,2026-04-25T05:00:00+00:00,19
1818W,SWBNO East Bank Water Treatment - Lower 9th Ward,LA,US,,,,America/Chicago,13.0,29.97728,-89.99746,249,71.0,2026-04-24T04:10:00-0500,2026-04-24T00:00:00-05:00,2026-04-25T00:00:00-05:00,2026-04-24T05:00:00+00:00,2026-04-25T05:00:00+00:00,34
1825W,NOFD Engine 31 - Venetian Isles,LA,US,,,,America/Chicago,16.0,30.06540,-89.81363,249,71.0,2026-04-24T05:10:00-0500,2026-04-24T00:00:00-05:00,2026-04-25T00:00:00-05:00,2026-04-24T05:00:00+00:00,2026-04-25T05:00:00+00:00,34
AMRL1,LAWMA,LA,US,,,,America/Chicago,3.0,29.44958,-91.33811,122,71.0,2026-04-24T01:30:00-0500,2026-04-24T00:00:00-05:00,2026-04-25T00:00:00-05:00,2026-04-24T05:00:00+00:00,2026-04-25T05:00:00+00:00,56
COOPPSAF1,PENSACOLA 7 NNE,FL,US,,,,America/Chicago,114.0,30.5301,-87.19847,74,71.0,2026-04-24T00:00:00-0500,2026-04-24T00:00:00-05:00,2026-04-25T00:00:00-05:00,2026-04-24T05:00:00+00:00,2026-04-25T05:00:00+00:00,1
D7368,DW7368 Pecan Island,LA,US,,,,America/Chicago,3.0,29.64983,-92.4195,65,71.0,2026-04-24T00:00:00-0500,2026-04-24T00:00:00-05:00,2026-04-25T00:00:00-05:00,2026-04-24T05:00:00+00:00,2026-04-25T05:00:00+00:00,24
F7996,FW7996 Perdido Key,FL,US,,,,America/Chicago,8.96,30.32700,-87.36833,65,71.0,2026-04-24T04:20:00-0500,2026-04-24T00:00:00-05:00,2026-04-25T00:00:00-05:00,2026-04-24T05:00:00+00:00,2026-04-25T05:00:00+00:00,34
G0043,GW0043 Slidell,LA,US,,,,America/Chicago,7.81,30.23100,-89.78983,65,71.0,2026-04-24T00:08:00-0500,2026-04-24T00:00:00-05:00,2026-04-25T00:00:00-05:00,2026-04-24T05:00:00+00:00,2026-04-25T05:00:00+00:00,68
G5321,GW5321 PENSACOLA,FL,US,,,,America/Chicago,7.91,30.29617,-87.42867,65,71.0,2026-04-24T05:29:00-0500,2026-04-24T00:00:00-05:00,2026-04-25T00:00:00-05:00,2026-04-24T05:00:00+00:00,2026-04-25T05:00:00+00:00,2
G6348,GW6348 SLIDELL,LA,US,,,,America/Chicago,9.84,30.22417,-89.78783,65,71.0,2026-04-24T00:00:00-0500,2026-04-24T00:00:00-05:00,2026-04-25T00:00:00-05:00,2026-04-24T05:00:00+00:00,2026-04-25T05:00:00+00:00,24
MBPA1,Middle Bay Port - Mobile Bay,AL,US,,,,America/Chicago,20.0,30.52711,-88.08656,121,71.0,2026-04-24T00:00:00-0500,2026-04-24T00:00:00-05:00,2026-04-25T00:00:00-05:00,2026-04-24T05:00:00+00:00,2026-04-25T05:00:00+00:00,54
PTOA1,Pinto Island,AL,US,,,,America/Chicago,10.0,30.67114,-88.03106,121,71.0,2026-04-24T01:18:00-0500,2026-04-24T00:00:00-05:00,2026-04-25T00:00:00-05:00,2026-04-24T05:00:00+00:00,2026-04-25T05:00:00+00:00,54
KGAO,"Galliano, South Lafourche Airport",LA,US,,,,America/Chicago,0.0,29.44472,-90.26111,1,71.1,2026-04-24T04:35:00-0500,2026-04-24T00:00:00-05:00,2026-04-25T00:00:00-05:00,2026-04-24T05:00:00+00:00,2026-04-25T05:00:00+00:00,7
NDBC42012,"ORANGE BEACH - 44 NM SE of Mobile, AL",,,,,,Etc/GMT+6,0.0,30.06,-87.548,286,71.1,2026-04-24T04:00:00-0600,2026-04-24T00:00:00-05:00,2026-04-25T00:00:00-05:00,2026-04-24T05:00:00+00:00,2026-04-25T05:00:00+00:00,31
NDBCAMRL1,"8764227 - LAWMA, Amerada Pass, LA",,,,,,America/Chicago,0.0,29.45,-91.338,286,71.1,2026-04-24T03:00:00-0500,2026-04-24T00:00:00-05:00,2026-04-25T00:00:00-05:00,2026-04-24T05:00:00+00:00,2026-04-25T05:00:00+00:00,19
NDBCMBPA1,"8736163 - Middle Bay Port, Mobile Bay, AL",,,,,,America/Chicago,11.15,30.527,-88.086,286,71.1,2026-04-24T00:00:00-0500,2026-04-24T00:00:00-05:00,2026-04-25T00:00:00-05:00,2026-04-24T05:00:00+00:00,2026-04-25T05:00:00+00:00,19
NDBCPTOA1,"8737005 - Pinto Island, AL",,,,,,America/Chicago,14.11,30.671,-88.031,286,71.1,2026-04-24T02:54:00-0500,2026-04-24T00:00:00-05:00,2026-04-25T00:00:00-05:00,2026-04-24T05:00:00+00:00,2026-04-25T05:00:00+00:00,19
2248W,Regional Transit Authority - Mid City,LA,US,,,,America/Chicago,148.0,29.96720,-90.08893,249,71.4,2026-04-24T05:40:00-0500,2026-04-24T00:00:00-05:00,2026-04-25T00:00:00-05:00,2026-04-24T05:00:00+00:00,2026-04-25T05:00:00+00:00,34
42012,Buoy 42012,,,,,,America/Chicago,0.0,30.10000,-87.60000,96,71.4,2026-04-24T03:50:00-0500,2026-04-24T00:00:00-05:00,2026-04-25T00:00:00-05:00,2026-04-24T05:00:00+00:00,2026-04-25T05:00:00+00:00,3
2280W,SWBNO Pumping Station Bayou Sauvage,LA,US,,,,America/Chicago,164.0,30.02977,-89.86796,249,71.5,2026-04-24T05:10:00-0500,2026-04-24T00:00:00-05:00,2026-04-25T00:00:00-05:00,2026-04-24T05:00:00+00:00,2026-04-25T05:00:00+00:00,34
EFLA1,E Range Front Light Visibility,AL,US,,,,America/Chicago,14.0,30.42861,-88.00972,96,71.6,2026-04-24T00:00:00-0500,2026-04-24T00:00:00-05:00,2026-04-25T00:00:00-05:00,2026-04-24T05:00:00+00:00,2026-04-25T05:00:00+00:00,19
KBIX,Keesler Air Force Base / Biloxi,MS,US,,,,America/Chicago,33.0,30.41667,-88.91667,1,71.6,2026-04-24T03:55:00-0500,2026-04-24T00:00:00-05:00,2026-04-25T00:00:00-05:00,2026-04-24T05:00:00+00:00,2026-04-25T05:00:00+00:00,5
NDBCEFLA1,"8734536 - E Range Front Light Visibility, AL",,,,,,America/Chicago,14.11,30.429,-88.01,286,71.6,2026-04-24T00:00:00-0500,2026-04-24T00:00:00-05:00,2026-04-25T00:00:00-05:00,2026-04-24T05:00:00+00:00,2026-04-25T05:00:00+00:00,19
GC42067,42067 - USM-R1,MS,US,,,,America/Chicago,0.0,30.043,-88.649,315,71.8,2026-04-24T04:20:00-0500,2026-04-24T00:00:00-05:00,2026-04-25T00:00:00-05:00,2026-04-24T05:00:00+00:00,2026-04-25T05:00:00+00:00,31
GISL1,Grand Isle,LA,US,,,,America/Chicago,0.0,29.26330,-89.95670,122,71.8,2026-04-24T05:24:00-0500,2026-04-24T00:00:00-05:00,2026-04-25T00:00:00-05:00,2026-04-24T05:00:00+00:00,2026-04-25T05:00:00+00:00,56
42067,Buoy 42067,,,,,,America/Chicago,0.0,30.00000,-88.60000,96,72.0,2026-04-24T02:50:00-0500,2026-04-24T00:00:00-05:00,2026-04-25T00:00:00-05:00,2026-04-24T05:00:00+00:00,2026-04-25T05:00:00+00:00,8
COOPVLKL1,LELAND BOWMAN LOCK,LA,US,,,,America/Chicago,40.0,29.7856,-92.2046,73,72.0,2026-04-24T00:00:00-0500,2026-04-24T00:00:00-05:00,2026-04-25T00:00:00-05:00,2026-04-24T05:00:00+00:00,2026-04-25T05:00:00+00:00,1
DILA1,Dauphin Island,AL,US,,,,America/Chicago,0.0,30.25000,-88.07500,122,72.0,2026-04-24T02:36:00-0500,2026-04-24T00:00:00-05:00,2026-04-25T00:00:00-05:00,2026-04-24T05:00:00+00:00,2026-04-25T05:00:00+00:00,56
E5037,EW5037 Houma,LA,US,,,,America/Chicago,1.51,29.53683,-90.67167,65,72.0,2026-04-24T03:43:00-0500,2026-04-24T00:00:00-05:00,2026-04-25T00:00:00-05:00,2026-04-24T05:00:00+00:00,2026-04-25T05:00:00+00:00,33
NDBCDILA1,"8735180 - Dauphin Island, AL",,,,,,America/Chicago,23.29,30.25,-88.075,286,72.0,2026-04-24T02:54:00-0500,2026-04-24T00:00:00-05:00,2026-04-25T00:00:00-05:00,2026-04-24T05:00:00+00:00,2026-04-25T05:00:00+00:00,19
NDBCGISL1,"8761724 - Grand Isle, LA",,,,,,America/Chicago,8.86,29.265,-89.958,286,72.0,2026-04-24T03:54:00-0500,2026-04-24T00:00:00-05:00,2026-04-25T00:00:00-05:00,2026-04-24T05:00:00+00:00,2026-04-25T05:00:00+00:00,19
NDBCPTFL1,"8762075 - Port Fourchon, LA",LA,US,,,,America/Chicago,4.26,29.114,-90.199,286,72.0,2026-04-24T01:54:00-0500,2026-04-24T00:00:00-05:00,2026-04-25T00:00:00-05:00,2026-04-24T05:00:00+00:00,2026-04-25T05:00:00+00:00,19
NDBCWYCM6,"8747437 - Bay Waveland Yacht Club, MS",MS,US,,,,America/Chicago,0.0,30.326,-89.326,286,72.0,2026-04-24T03:54:00-0500,2026-04-24T00:00:00-05:00,2026-04-25T00:00:00-05:00,2026-04-24T05:00:00+00:00,2026-04-25T05:00:00+00:00,19
NTC8762075,"Port Fourchon, Belle Pass",LA,US,,,,America/Chicago,2.0,29.1142,-90.1993,278,72.0,2026-04-24T00:12:00-0500,2026-04-24T00:00:00-05:00,2026-04-25T00:00:00-05:00,2026-04-24T05:00:00+00:00,2026-04-25T05:00:00+00:00,56
PSTL1,Pilots Station East,LA,US,,,,America/Chicago,0.0,28.93220,-89.40750,122,72.0,2026-04-24T04:30:00-0500,2026-04-24T00:00:00-05:00,2026-04-25T00:00:00-05:00,2026-04-24T05:00:00+00:00,2026-04-25T05:00:00+00:00,55
WYCM6,Bay Waveland Yacht Club,MS,US,,,,America/Chicago,0.0,30.32639,-89.32578,122,72.0,2026-04-24T00:06:00-0500,2026-04-24T00:00:00-05:00,2026-04-25T00:00:00-05:00,2026-04-24T05:00:00+00:00,2026-04-25T05:00:00+00:00,56
DPHA1,Dauphin Island Sea Lab,AL,US,,,,America/Chicago,,30.25139,-88.07777,96,72.2,2026-04-24T03:00:00-0500,2026-04-24T00:00:00-05:00,2026-04-25T00:00:00-05:00,2026-04-24T05:00:00+00:00,2026-04-25T05:00:00+00:00,5
GCDPHA1,"DISL - Dauphin Island, AL",AL,US,,,,America/Chicago,0.0,30.2513,-88.0778,315,72.2,2026-04-24T03:00:00-0500,2026-04-24T00:00:00-05:00,2026-04-25T00:00:00-05:00,2026-04-24T05:00:00+00:00,2026-04-25T05:00:00+00:00,6
42084,Southwest Pass Entrance W,LA,US,,,,Etc/GMT+6,,28.988,-89.649,96,72.3,2026-04-24T03:30:00-0600,2026-04-24T00:00:00-05:00,2026-04-25T00:00:00-05:00,2026-04-24T05:00:00+00:00,2026-04-25T05:00:00+00:00,1
FRMA1,Fort Morgan,AL,US,,,,America/Chicago,5.0,30.23445,-87.99361,96,72.3,2026-04-24T02:24:00-0500,2026-04-24T00:00:00-05:00,2026-04-25T00:00:00-05:00,2026-04-24T05:00:00+00:00,2026-04-25T05:00:00+00:00,19
GC42084,"42084 - Southwest Pass Entrance W, LA (CDIP 256)",LA,US,,,,Etc/GMT+6,0.0,28.988,-89.649,315,72.3,2026-04-24T03:30:00-0600,2026-04-24T00:00:00-05:00,2026-04-25T00:00:00-05:00,2026-04-24T05:00:00+00:00,2026-04-25T05:00:00+00:00,5
NDBC42084,"Southwest Pass Entrance W, LA (256)",,,,,,Etc/GMT+6,0.0,28.988,-89.649,286,72.3,2026-04-24T03:30:00-0600,2026-04-24T00:00:00-05:00,2026-04-25T00:00:00-05:00,2026-04-24T05:00:00+00:00,2026-04-25T05:00:00+00:00,11
NDBCFRMA1,"8734383 - Fort Morgan, AL",AL,US,,,,America/Chicago,5.34,30.234,-87.994,286,72.3,2026-04-24T02:24:00-0500,2026-04-24T00:00:00-05:00,2026-04-25T00:00:00-05:00,2026-04-24T05:00:00+00:00,2026-04-25T05:00:00+00:00,19
NDBCPSTL1,"8760922 - Pilot's Station East, SW Pass, LA",LA,US,,,,America/Chicago,11.81,28.932,-89.407,286,72.3,2026-04-24T04:30:00-0500,2026-04-24T00:00:00-05:00,2026-04-25T00:00:00-05:00,2026-04-24T05:00:00+00:00,2026-04-25T05:00:00+00:00,19
NTC8734383,Fort Morgan,AL,US,,,,America/Chicago,0.0,30.234333,-87.99358,278,72.3,2026-04-24T02:24:00-0500,2026-04-24T00:00:00-05:00,2026-04-25T00:00:00-05:00,2026-04-24T05:00:00+00:00,2026-04-25T05:00:00+00:00,56
GCKATA1,"KATA - Katrina Cut, AL",AL,US,,,,America/Chicago,0.0,30.2583,-88.2131,315,72.4,2026-04-24T03:30:00-0500,2026-04-24T00:00:00-05:00,2026-04-25T00:00:00-05:00,2026-04-24T05:00:00+00:00,2026-04-25T05:00:00+00:00,12
GDXM6,NERRS METEOROLOGICAL SITE AT GRAND BAY NEAR MOSS POINT 8SE,MS,US,,,,America/Chicago,0.0,30.35722,-88.41889,188,72.4,2026-04-24T03:45:00-0500,2026-04-24T00:00:00-05:00,2026-04-25T00:00:00-05:00,2026-04-24T05:00:00+00:00,2026-04-25T05:00:00+00:00,20
NDBCGDXM6,"Crooked Bayou, Grand Bay Reserve, MS",MS,US,,,,America/Chicago,0.0,30.359,-88.42,286,72.5,2026-04-24T03:15:00-0500,2026-04-24T00:00:00-05:00,2026-04-25T00:00:00-05:00,2026-04-24T05:00:00+00:00,2026-04-25T05:00:00+00:00,19
FRWL1,Freshwater Canal Locks,LA,US,,,,America/Chicago,0.0,29.55500,-92.30500,122,72.7,2026-04-24T00:48:00-0500,2026-04-24T00:00:00-05:00,2026-04-25T00:00:00-05:00,2026-04-24T05:00:00+00:00,2026-04-25T05:00:00+00:00,56
NDBCFRWL1,"8766072 - Freshwater Canal Locks, LA",LA,US,,,,America/Chicago,6.89,29.552,-92.305,286,72.7,2026-04-24T00:00:00-0500,2026-04-24T00:00:00-05:00,2026-04-25T00:00:00-05:00,2026-04-24T05:00:00+00:00,2026-04-25T05:00:00+00:00,19
1881W,NOFD Engine 16 - Central City,LA,US,,,,America/Chicago,16.0,29.94131,-90.08049,249,72.8,2026-04-24T01:40:00-0500,2026-04-24T00:00:00-05:00,2026-04-25T00:00:00-05:00,2026-04-24T05:00:00+00:00,2026-04-25T05:00:00+00:00,34
NDBCEINL1,"8764314 - North of Eugene Island, LA",,,,,,America/Chicago,19.68,29.373,-91.384,286,73.0,2026-04-24T02:54:00-0500,2026-04-24T00:00:00-05:00,2026-04-25T00:00:00-05:00,2026-04-24T05:00:00+00:00,2026-04-25T05:00:00+00:00,19
BURL1,Southwest Pass,LA,US,,,,America/Chicago,0.0,28.90000,-89.43000,96,73.1,2026-04-24T05:00:00-0500,2026-04-24T00:00:00-05:00,2026-04-25T00:00:00-05:00,2026-04-24T05:00:00+00:00,2026-04-25T05:00:00+00:00,6
EINL1,North of Eugene Island,LA,US,,,,America/Chicago,20.0,29.37306,-91.38389,96,73.1,2026-04-24T02:54:00-0500,2026-04-24T00:00:00-05:00,2026-04-25T00:00:00-05:00,2026-04-24T05:00:00+00:00,2026-04-25T05:00:00+00:00,19
KIKT,Nakika Subsea Development Platform,MS,US,,,,Etc/GMT+6,0.0,28.5208,-88.2889,1,73.4,2026-04-23T23:20:00-0600,2026-04-24T00:00:00-05:00,2026-04-25T00:00:00-05:00,2026-04-24T05:00:00+00:00,2026-04-25T05:00:00+00:00,17
KMTK,SOUTH PASS 89E,,,,,,Etc/GMT+6,164.0,28.70000,-89.40000,108,73.4,2026-04-23T23:20:00-0600,2026-04-24T00:00:00-05:00,2026-04-25T00:00:00-05:00,2026-04-24T05:00:00+00:00,2026-04-25T05:00:00+00:00,12
KSPR,SHIP SHOAL OIL PLATFORM,LA,US,,,,Etc/GMT+6,224.0,28.60,-91.20,1,73.4,2026-04-23T23:20:00-0600,2026-04-24T00:00:00-05:00,2026-04-25T00:00:00-05:00,2026-04-24T05:00:00+00:00,2026-04-25T05:00:00+00:00,17
NDBCKIKT,Mississippi Canyon 474 / Na Kika FPU (BP),,,,,,Etc/GMT+6,,28.521,-88.289,286,73.4,2026-04-23T23:20:00-0600,2026-04-24T00:00:00-05:00,2026-04-25T00:00:00-05:00,2026-04-24T05:00:00+00:00,2026-04-25T05:00:00+00:00,16
KEKE,EUGENE ISLAND 25,,,,,,Etc/GMT+6,102.0,28.50000,-91.58330,1,75.2,2026-04-23T23:20:00-0600,2026-04-24T00:00:00-05:00,2026-04-25T00:00:00-05:00,2026-04-24T05:00:00+00:00,2026-04-25T05:00:00+00:00,17
KVOA,VK 786/Petronius (Chevron),LA,US,,,,Etc/GMT+6,53.0,29.22900,-87.78100,1,75.2,2026-04-23T23:20:00-0600,2026-04-24T00:00:00-05:00,2026-04-25T00:00:00-05:00,2026-04-24T05:00:00+00:00,2026-04-25T05:00:00+00:00,17
NDBCKVOA,Viosca Knoll 786 / Petronius (Chevron),,,,,,Etc/GMT+6,,29.229,-87.781,286,75.2,2026-04-23T23:20:00-0600,2026-04-24T00:00:00-05:00,2026-04-25T00:00:00-05:00,2026-04-24T05:00:00+00:00,2026-04-25T05:00:00+00:00,16
AT261,KE5JZM-1 Lutcher,LA,US,,,,America/Chicago,10.96,30.04367,-90.69933,65,76.0,2026-04-24T00:01:00-0500,2026-04-24T00:00:00-05:00,2026-04-25T00:00:00-05:00,2026-04-24T05:00:00+00:00,2026-04-25T05:00:00+00:00,327
GCPPTA1,"PPTA - Perdido Pass, AL",AL,US,,,,America/Chicago,0.0,30.2791,-87.5561,315,78.2,2026-04-24T05:00:00-0500,2026-04-24T00:00:00-05:00,2026-04-25T00:00:00-05:00,2026-04-24T05:00:00+00:00,2026-04-25T05:00:00+00:00,6
